{"tile": "poi-tile--2-31", "lat": -2, "lon": 31, "stations": [{"id": "osm-5298885522", "name": "Rutenge to Scarion", "type": "charging_station", "lat": -1.645546, "lon": 31.589329, "operator": "scarion power bust", "address": {"street": "", "housenumber": "", "postcode": "", "city": "", "state": "", "country": ""}, "power": {"max_kw": null, "sockets": [], "capacity": 0}, "source": "osm", "tags": {"fee": "", "access": "", "opening_hours": "", "authentication": "", "brand": "", "network": "", "operator": "scarion power bust"}, "amenities": {"fee": false}}, {"id": "osm-5545349322", "name": "Huruma clinic", "type": "charging_station", "lat": -1.444527, "lon": 31.438279, "operator": "JR station", "address": {"street": "", "housenumber": "", "postcode": "", "city": "", "state": "", "country": ""}, "power": {"max_kw": null, "sockets": [], "capacity": 0}, "source": "osm", "tags": {"fee": "", "access": "", "opening_hours": "", "authentication": "", "brand": "", "network": "", "operator": "JR station"}, "amenities": {"fee": false}}, {"id": "osm-9559151618", "name": "Bushoko", "type": "charging_station", "lat": -1.84148, "lon": 31.655962, "operator": "Unknown", "address": {"street": "", "housenumber": "", "postcode": "", "city": "", "state": "", "country": ""}, "power": {"max_kw": null, "sockets": [], "capacity": 0}, "source": "osm", "tags": {"fee": "", "access": "", "opening_hours": "", "authentication": "", "brand": "", "network": "", "operator": ""}, "amenities": {"fee": false}}, {"id": "osm-9727979517", "name": "Bugandika", "type": "charging_station", "lat": -1.842818, "lon": 31.651845, "operator": "Unknown", "address": {"street": "", "housenumber": "", "postcode": "", "city": "", "state": "", "country": ""}, "power": {"max_kw": null, "sockets": [], "capacity": 0}, "source": "osm", "tags": {"fee": "", "access": "", "opening_hours": "", "authentication": "", "brand": "", "network": "", "operator": ""}, "amenities": {"fee": false}}, {"id": "osm-9735248918", "name": "Manyora- Kagoma Village", "type": "charging_station", "lat": -1.747406, "lon": 31.701237, "operator": "community", "address": {"street": "Katwerere hamlet", "housenumber": "100", "postcode": "", "city": "", "state": "", "country": ""}, "power": {"max_kw": null, "sockets": [], "capacity": 0}, "source": "osm", "tags": {"fee": "", "access": "", "opening_hours": "", "authentication": "", "brand": "", "network": "", "operator": "community"}, "amenities": {"fee": false}}], "count": 5}