{"tile": "poi-tile-25-100", "lat": 25, "lon": 100, "stations": [{"id": "osm-7334431902", "name": "电动自行车智能充电站", "type": "charging_station", "lat": 25.680194, "lon": 100.156691, "operator": "Unknown", "address": {"street": "", "housenumber": "", "postcode": "", "city": "", "state": "", "country": ""}, "power": {"max_kw": null, "sockets": [], "capacity": 0}, "source": "osm", "tags": {"fee": "yes", "access": "customers", "opening_hours": "", "authentication": "", "brand": "", "network": "", "operator": ""}, "amenities": {"fee": true}}, {"id": "osm-10044053447", "name": "EV Charging Station", "type": "charging_station", "lat": 25.576567, "lon": 100.225714, "operator": "Unknown", "address": {"street": "", "housenumber": "", "postcode": "", "city": "", "state": "", "country": ""}, "power": {"max_kw": null, "sockets": [], "capacity": 0}, "source": "osm", "tags": {"fee": "", "access": "", "opening_hours": "", "authentication": "", "brand": "", "network": "", "operator": ""}, "amenities": {"fee": false}}, {"id": "osm-11464713647", "name": "EV Charging Station", "type": "charging_station", "lat": 25.22869, "lon": 100.278674, "operator": "Unknown", "address": {"street": "", "housenumber": "", "postcode": "", "city": "", "state": "", "country": ""}, "power": {"max_kw": null, "sockets": [], "capacity": 0}, "source": "osm", "tags": {"fee": "", "access": "", "opening_hours": "", "authentication": "", "brand": "", "network": "", "operator": ""}, "amenities": {"fee": false}}, {"id": "osm-11464713648", "name": "EV Charging Station", "type": "charging_station", "lat": 25.229426, "lon": 100.275135, "operator": "Unknown", "address": {"street": "", "housenumber": "", "postcode": "", "city": "", "state": "", "country": ""}, "power": {"max_kw": null, "sockets": [], "capacity": 0}, "source": "osm", "tags": {"fee": "", "access": "", "opening_hours": "", "authentication": "", "brand": "", "network": "", "operator": ""}, "amenities": {"fee": false}}, {"id": "osm-11539533007", "name": "南方电网", "type": "charging_station", "lat": 25.591826, "lon": 100.897927, "operator": "Unknown", "address": {"street": "", "housenumber": "", "postcode": "", "city": "", "state": "", "country": ""}, "power": {"max_kw": null, "sockets": [], "capacity": 0}, "source": "osm", "tags": {"fee": "", "access": "yes", "opening_hours": "", "authentication": "", "brand": "南方电网", "network": "", "operator": ""}, "amenities": {"fee": false}}, {"id": "osm-12559255981", "name": "Tesla Supercharger", "type": "charging_station", "lat": 25.60298, "lon": 100.233926, "operator": "Tesla", "address": {"street": "", "housenumber": "", "postcode": "", "city": "", "state": "", "country": ""}, "power": {"max_kw": null, "sockets": [], "capacity": 0}, "source": "osm", "tags": {"fee": "", "access": "", "opening_hours": "", "authentication": "", "brand": "Tesla Supercharger", "network": "", "operator": "Tesla"}, "amenities": {"fee": false}}, {"id": "osm-13321771732", "name": "慧能新能源充电站", "type": "charging_station", "lat": 25.471642, "lon": 100.552237, "operator": "Unknown", "address": {"street": "", "housenumber": "", "postcode": "", "city": "", "state": "", "country": ""}, "power": {"max_kw": null, "sockets": [], "capacity": 0}, "source": "osm", "tags": {"fee": "", "access": "", "opening_hours": "", "authentication": "", "brand": "", "network": "", "operator": ""}, "amenities": {"fee": false}}], "count": 7}