{"tile": "poi-tile-29-119", "lat": 29, "lon": 119, "stations": [{"id": "osm-10046821371", "name": "国家电网", "type": "charging_station", "lat": 29.248871, "lon": 119.879148, "operator": "State Grid Corp.", "address": {"street": "", "housenumber": "", "postcode": "", "city": "", "state": "", "country": ""}, "power": {"max_kw": null, "sockets": [], "capacity": 0}, "source": "osm", "tags": {"fee": "", "access": "", "opening_hours": "", "authentication": "", "brand": "国家电网", "network": "", "operator": "国家电网有限公司"}, "amenities": {"fee": false}}, {"id": "osm-10046821372", "name": "国家电网", "type": "charging_station", "lat": 29.247752, "lon": 119.883012, "operator": "State Grid Corp.", "address": {"street": "", "housenumber": "", "postcode": "", "city": "", "state": "", "country": ""}, "power": {"max_kw": null, "sockets": [], "capacity": 0}, "source": "osm", "tags": {"fee": "", "access": "", "opening_hours": "", "authentication": "", "brand": "国家电网", "network": "", "operator": "国家电网有限公司"}, "amenities": {"fee": false}}, {"id": "osm-10184892773", "name": "蔚来换电站", "type": "charging_station", "lat": 29.493903, "lon": 119.294682, "operator": "Unknown", "address": {"street": "", "housenumber": "", "postcode": "", "city": "", "state": "", "country": ""}, "power": {"max_kw": null, "sockets": [], "capacity": 0}, "source": "osm", "tags": {"fee": "", "access": "", "opening_hours": "", "authentication": "", "brand": "NIO Power", "network": "", "operator": ""}, "amenities": {"fee": false}}, {"id": "osm-10184892806", "name": "国家电网", "type": "charging_station", "lat": 29.493055, "lon": 119.295576, "operator": "State Grid Corp.", "address": {"street": "", "housenumber": "", "postcode": "", "city": "", "state": "", "country": ""}, "power": {"max_kw": null, "sockets": [], "capacity": 0}, "source": "osm", "tags": {"fee": "", "access": "", "opening_hours": "", "authentication": "", "brand": "国家电网", "network": "", "operator": "国家电网有限公司"}, "amenities": {"fee": false}}, {"id": "osm-13120956657", "name": "小桔充电汽车充电站", "type": "charging_station", "lat": 29.779607, "lon": 119.957189, "operator": "Unknown", "address": {"street": "", "housenumber": "", "postcode": "", "city": "", "state": "", "country": ""}, "power": {"max_kw": null, "sockets": [], "capacity": 0}, "source": "osm", "tags": {"fee": "", "access": "", "opening_hours": "", "authentication": "", "brand": "", "network": "", "operator": ""}, "amenities": {"fee": false}}, {"id": "osm-13734036546", "name": "金华金开产业发展集团有限公司", "type": "charging_station", "lat": 29.03703, "lon": 119.608071, "operator": "Unknown", "address": {"street": "", "housenumber": "", "postcode": "", "city": "", "state": "", "country": ""}, "power": {"max_kw": null, "sockets": [], "capacity": 0}, "source": "osm", "tags": {"fee": "", "access": "", "opening_hours": "", "authentication": "", "brand": "", "network": "", "operator": ""}, "amenities": {"fee": false}}, {"id": "osm-13734169862", "name": "特来电", "type": "charging_station", "lat": 29.064435, "lon": 119.654458, "operator": "Unknown", "address": {"street": "", "housenumber": "", "postcode": "", "city": "", "state": "", "country": ""}, "power": {"max_kw": null, "sockets": [], "capacity": 0}, "source": "osm", "tags": {"fee": "", "access": "", "opening_hours": "", "authentication": "", "brand": "特来电", "network": "", "operator": ""}, "amenities": {"fee": false}}], "count": 7}