{"tile": "poi-tile-18-73", "lat": 18, "lon": 73, "stations": [{"id": "osm-763446417", "name": "EV Charging Station", "type": "charging_station", "lat": 18.496101, "lon": 73.808859, "operator": "Unknown", "address": {"street": "", "housenumber": "", "postcode": "", "city": "", "state": "", "country": ""}, "power": {"max_kw": null, "sockets": [], "capacity": 0}, "source": "osm", "tags": {"fee": "", "access": "", "opening_hours": "", "authentication": "", "brand": "", "network": "", "operator": ""}, "amenities": {"fee": false}}, {"id": "osm-6116153836", "name": "PowerUP", "type": "charging_station", "lat": 18.567214, "lon": 73.771986, "operator": "Unknown", "address": {"street": "", "housenumber": "", "postcode": "", "city": "", "state": "", "country": ""}, "power": {"max_kw": null, "sockets": [], "capacity": 0}, "source": "osm", "tags": {"fee": "", "access": "", "opening_hours": "", "authentication": "", "brand": "PowerUP", "network": "", "operator": ""}, "amenities": {"fee": false}}, {"id": "osm-9411828530", "name": "Ather Energy", "type": "charging_station", "lat": 18.507194, "lon": 73.803773, "operator": "Ather Energy", "address": {"street": "", "housenumber": "", "postcode": "", "city": "", "state": "", "country": ""}, "power": {"max_kw": null, "sockets": [], "capacity": 0}, "source": "osm", "tags": {"fee": "yes", "access": "yes", "opening_hours": "", "authentication": "", "brand": "Ather Energy", "network": "", "operator": "Ather Energy"}, "amenities": {"fee": true}}, {"id": "osm-10013758817", "name": "Tata power", "type": "charging_station", "lat": 18.611154, "lon": 73.783155, "operator": "Tata power", "address": {"street": "Kalewadi Phata-Auto Cluster BRTS Road", "housenumber": "", "postcode": "", "city": "", "state": "", "country": ""}, "power": {"max_kw": null, "sockets": [], "capacity": 0}, "source": "osm", "tags": {"fee": "yes", "access": "", "opening_hours": "", "authentication": "", "brand": "Tata power", "network": "", "operator": "Tata power"}, "amenities": {"fee": true}}, {"id": "osm-10055287289", "name": "Tata Power", "type": "charging_station", "lat": 18.991387, "lon": 73.942776, "operator": "Shridha", "address": {"street": "", "housenumber": "", "postcode": "", "city": "", "state": "", "country": ""}, "power": {"max_kw": null, "sockets": [], "capacity": 0}, "source": "osm", "tags": {"fee": "yes", "access": "yes", "opening_hours": "", "authentication": "", "brand": "Tata Power", "network": "", "operator": "Shridha"}, "amenities": {"fee": true}}, {"id": "osm-10097434142", "name": "Bolt", "type": "charging_station", "lat": 18.509563, "lon": 73.814701, "operator": "Bolt", "address": {"street": "", "housenumber": "", "postcode": "", "city": "", "state": "", "country": ""}, "power": {"max_kw": null, "sockets": [], "capacity": 0}, "source": "osm", "tags": {"fee": "", "access": "", "opening_hours": "", "authentication": "", "brand": "Bolt", "network": "", "operator": "Bolt"}, "amenities": {"fee": false}}, {"id": "osm-10097434143", "name": "Ather Energy", "type": "charging_station", "lat": 18.510568, "lon": 73.781902, "operator": "Ather Energy", "address": {"street": "", "housenumber": "", "postcode": "", "city": "", "state": "", "country": ""}, "power": {"max_kw": null, "sockets": [], "capacity": 0}, "source": "osm", "tags": {"fee": "", "access": "", "opening_hours": "", "authentication": "", "brand": "Ather Energy", "network": "", "operator": "Ather Energy"}, "amenities": {"fee": false}}, {"id": "osm-10097434144", "name": "Ather Energy", "type": "charging_station", "lat": 18.484496, "lon": 73.849675, "operator": "Ather Energy", "address": {"street": "", "housenumber": "", "postcode": "", "city": "", "state": "", "country": ""}, "power": {"max_kw": null, "sockets": [], "capacity": 0}, "source": "osm", "tags": {"fee": "yes", "access": "", "opening_hours": "", "authentication": "", "brand": "Ather Energy", "network": "", "operator": "Ather Energy"}, "amenities": {"fee": true}}, {"id": "osm-10097460085", "name": "Ather Energy", "type": "charging_station", "lat": 18.518977, "lon": 73.830464, "operator": "Ather Energy", "address": {"street": "", "housenumber": "", "postcode": "", "city": "", "state": "", "country": ""}, "power": {"max_kw": null, "sockets": [], "capacity": 0}, "source": "osm", "tags": {"fee": "", "access": "", "opening_hours": "", "authentication": "", "brand": "Ather Energy", "network": "", "operator": "Ather Energy"}, "amenities": {"fee": false}}, {"id": "osm-10250046452", "name": "Tata", "type": "charging_station", "lat": 18.553634, "lon": 73.806562, "operator": "Tata", "address": {"street": "", "housenumber": "", "postcode": "", "city": "", "state": "", "country": ""}, "power": {"max_kw": null, "sockets": [], "capacity": 0}, "source": "osm", "tags": {"fee": "", "access": "yes", "opening_hours": "", "authentication": "", "brand": "", "network": "", "operator": "Tata"}, "amenities": {"fee": false}}, {"id": "osm-10285393622", "name": "Tata Power", "type": "charging_station", "lat": 18.956177, "lon": 73.162788, "operator": "Tata Power", "address": {"street": "", "housenumber": "", "postcode": "", "city": "", "state": "", "country": ""}, "power": {"max_kw": null, "sockets": [], "capacity": 0}, "source": "osm", "tags": {"fee": "", "access": "yes", "opening_hours": "", "authentication": "", "brand": "Tata Power", "network": "", "operator": "Tata Power"}, "amenities": {"fee": false}}, {"id": "osm-10290789663", "name": "Go Ego", "type": "charging_station", "lat": 18.578879, "lon": 73.762489, "operator": "Unknown", "address": {"street": "", "housenumber": "", "postcode": "", "city": "", "state": "", "country": ""}, "power": {"max_kw": null, "sockets": [], "capacity": 0}, "source": "osm", "tags": {"fee": "", "access": "", "opening_hours": "", "authentication": "", "brand": "Go Ego", "network": "", "operator": ""}, "amenities": {"fee": false}}, {"id": "osm-10615755147", "name": "Bolt", "type": "charging_station", "lat": 18.511435, "lon": 73.777034, "operator": "Trimurti Motors", "address": {"street": "", "housenumber": "", "postcode": "", "city": "", "state": "", "country": ""}, "power": {"max_kw": null, "sockets": [], "capacity": 0}, "source": "osm", "tags": {"fee": "", "access": "yes", "opening_hours": "", "authentication": "", "brand": "Bolt", "network": "", "operator": "Trimurti Motors"}, "amenities": {"fee": false}}, {"id": "osm-10671202586", "name": "Shell", "type": "charging_station", "lat": 18.585728, "lon": 73.781752, "operator": "Shell Recharge", "address": {"street": "", "housenumber": "", "postcode": "", "city": "", "state": "", "country": ""}, "power": {"max_kw": null, "sockets": [], "capacity": 0}, "source": "osm", "tags": {"fee": "yes", "access": "yes", "opening_hours": "", "authentication": "", "brand": "Shell", "network": "", "operator": "Shell"}, "amenities": {"fee": true}}, {"id": "osm-10719100420", "name": "goEgo Charging Station", "type": "charging_station", "lat": 18.617076, "lon": 73.76731, "operator": "Unknown", "address": {"street": "", "housenumber": "", "postcode": "", "city": "", "state": "", "country": ""}, "power": {"max_kw": null, "sockets": [], "capacity": 0}, "source": "osm", "tags": {"fee": "", "access": "", "opening_hours": "", "authentication": "", "brand": "goEgo Charging Station", "network": "", "operator": ""}, "amenities": {"fee": false}}, {"id": "osm-10797010207", "name": "Tata power", "type": "charging_station", "lat": 18.599869, "lon": 73.754867, "operator": "Tata power", "address": {"street": "", "housenumber": "", "postcode": "", "city": "", "state": "", "country": ""}, "power": {"max_kw": null, "sockets": [{"type": "Type2", "kw": null, "count": 1}], "capacity": 1}, "source": "osm", "tags": {"fee": "", "access": "", "opening_hours": "", "authentication": "", "brand": "Tata power", "network": "", "operator": "Tata power"}, "amenities": {"fee": false}}, {"id": "osm-10797010208", "name": "Tata power", "type": "charging_station", "lat": 18.599598, "lon": 73.754874, "operator": "Tata power", "address": {"street": "", "housenumber": "", "postcode": "", "city": "", "state": "", "country": ""}, "power": {"max_kw": null, "sockets": [{"type": "Type2 Combo", "kw": null, "count": 1}], "capacity": 1}, "source": "osm", "tags": {"fee": "", "access": "", "opening_hours": "", "authentication": "", "brand": "Tata power", "network": "", "operator": "Tata power"}, "amenities": {"fee": false}}, {"id": "osm-10841782157", "name": "Ather Energy", "type": "charging_station", "lat": 18.588764, "lon": 73.78273, "operator": "Ather Energy", "address": {"street": "", "housenumber": "", "postcode": "", "city": "", "state": "", "country": ""}, "power": {"max_kw": null, "sockets": [], "capacity": 0}, "source": "osm", "tags": {"fee": "yes", "access": "yes", "opening_hours": "", "authentication": "", "brand": "Ather Energy", "network": "", "operator": "Ather Energy"}, "amenities": {"fee": true}}, {"id": "osm-10844985580", "name": "EV Charging Station", "type": "charging_station", "lat": 18.577831, "lon": 73.907349, "operator": "Unknown", "address": {"street": "", "housenumber": "", "postcode": "", "city": "", "state": "", "country": ""}, "power": {"max_kw": null, "sockets": [], "capacity": 0}, "source": "osm", "tags": {"fee": "yes", "access": "yes", "opening_hours": "", "authentication": "", "brand": "", "network": "", "operator": ""}, "amenities": {"fee": true}}, {"id": "osm-10870849607", "name": "GoEgo", "type": "charging_station", "lat": 18.590664, "lon": 73.745789, "operator": "Unknown", "address": {"street": "", "housenumber": "", "postcode": "", "city": "", "state": "", "country": ""}, "power": {"max_kw": null, "sockets": [], "capacity": 0}, "source": "osm", "tags": {"fee": "yes", "access": "", "opening_hours": "", "authentication": "", "brand": "GoEgo", "network": "", "operator": ""}, "amenities": {"fee": true}}, {"id": "osm-11005778506", "name": "Jio pulse", "type": "charging_station", "lat": 18.563807, "lon": 73.806857, "operator": "Unknown", "address": {"street": "", "housenumber": "", "postcode": "", "city": "", "state": "", "country": ""}, "power": {"max_kw": null, "sockets": [], "capacity": 0}, "source": "osm", "tags": {"fee": "yes", "access": "yes", "opening_hours": "", "authentication": "", "brand": "Jio pulse", "network": "", "operator": ""}, "amenities": {"fee": true}}, {"id": "osm-11033745938", "name": "Tata Power", "type": "charging_station", "lat": 18.589756, "lon": 73.738172, "operator": "Unknown", "address": {"street": "", "housenumber": "", "postcode": "", "city": "", "state": "", "country": ""}, "power": {"max_kw": null, "sockets": [], "capacity": 0}, "source": "osm", "tags": {"fee": "yes", "access": "", "opening_hours": "", "authentication": "", "brand": "Tata Power", "network": "", "operator": ""}, "amenities": {"fee": true}}, {"id": "osm-11217502924", "name": "goEgo Charging Station", "type": "charging_station", "lat": 18.562331, "lon": 73.806935, "operator": "Westend Mall", "address": {"street": "", "housenumber": "", "postcode": "", "city": "", "state": "", "country": ""}, "power": {"max_kw": null, "sockets": [], "capacity": 0}, "source": "osm", "tags": {"fee": "", "access": "yes", "opening_hours": "", "authentication": "", "brand": "goEgo Charging Station", "network": "", "operator": "Westend Mall"}, "amenities": {"fee": false}}, {"id": "osm-11452082417", "name": "EV Charging Station", "type": "charging_station", "lat": 18.634795, "lon": 73.799051, "operator": "Unknown", "address": {"street": "", "housenumber": "", "postcode": "", "city": "", "state": "", "country": ""}, "power": {"max_kw": null, "sockets": [], "capacity": 0}, "source": "osm", "tags": {"fee": "", "access": "", "opening_hours": "", "authentication": "", "brand": "", "network": "", "operator": ""}, "amenities": {"fee": false}}, {"id": "osm-11578223404", "name": "Zeal Energy Services", "type": "charging_station", "lat": 18.460072, "lon": 73.786174, "operator": "Zeal Energy Services", "address": {"street": "", "housenumber": "", "postcode": "", "city": "", "state": "", "country": ""}, "power": {"max_kw": null, "sockets": [], "capacity": 0}, "source": "osm", "tags": {"fee": "", "access": "", "opening_hours": "", "authentication": "", "brand": "", "network": "", "operator": "Zeal Energy Services"}, "amenities": {"fee": false}}, {"id": "osm-12334310661", "name": "kazam", "type": "charging_station", "lat": 18.497962, "lon": 73.794178, "operator": "Unknown", "address": {"street": "", "housenumber": "", "postcode": "", "city": "", "state": "", "country": ""}, "power": {"max_kw": null, "sockets": [], "capacity": 0}, "source": "osm", "tags": {"fee": "", "access": "", "opening_hours": "", "authentication": "", "brand": "kazam", "network": "", "operator": ""}, "amenities": {"fee": false}}, {"id": "osm-12350373268", "name": "EV Dock charging station", "type": "charging_station", "lat": 18.585792, "lon": 73.734433, "operator": "EV Dock", "address": {"street": "", "housenumber": "", "postcode": "", "city": "", "state": "", "country": ""}, "power": {"max_kw": null, "sockets": [], "capacity": 0}, "source": "osm", "tags": {"fee": "yes", "access": "customers", "opening_hours": "", "authentication": "", "brand": "EV Dock charging station", "network": "", "operator": "EV Dock"}, "amenities": {"fee": true}}, {"id": "osm-12350440058", "name": "shell", "type": "charging_station", "lat": 18.59076, "lon": 73.741035, "operator": "Shell Recharge", "address": {"street": "", "housenumber": "", "postcode": "", "city": "", "state": "", "country": ""}, "power": {"max_kw": null, "sockets": [], "capacity": 0}, "source": "osm", "tags": {"fee": "yes", "access": "customers", "opening_hours": "", "authentication": "", "brand": "shell", "network": "", "operator": "shell"}, "amenities": {"fee": true}}, {"id": "osm-12350467611", "name": "Bijlify", "type": "charging_station", "lat": 18.578172, "lon": 73.736892, "operator": "Bijlify", "address": {"street": "", "housenumber": "", "postcode": "", "city": "", "state": "", "country": ""}, "power": {"max_kw": null, "sockets": [], "capacity": 0}, "source": "osm", "tags": {"fee": "yes", "access": "customers", "opening_hours": "", "authentication": "", "brand": "Bijlify", "network": "", "operator": "Bijlify"}, "amenities": {"fee": true}}, {"id": "osm-12473454969", "name": "Bijlify", "type": "charging_station", "lat": 18.522819, "lon": 73.841053, "operator": "Unknown", "address": {"street": "", "housenumber": "", "postcode": "", "city": "", "state": "", "country": ""}, "power": {"max_kw": null, "sockets": [], "capacity": 0}, "source": "osm", "tags": {"fee": "yes", "access": "yes", "opening_hours": "", "authentication": "", "brand": "Bijlify", "network": "", "operator": ""}, "amenities": {"fee": true}}], "count": 30}