{"tile": "poi-tile-33-44", "lat": 33, "lon": 44, "stations": [{"id": "osm-5001489621", "name": "مستودع الهندسه العسكريه", "type": "charging_station", "lat": 33.559692, "lon": 44.25006, "operator": "Unknown", "address": {"street": "", "housenumber": "", "postcode": "", "city": "", "state": "", "country": ""}, "power": {"max_kw": null, "sockets": [], "capacity": 0}, "source": "osm", "tags": {"fee": "", "access": "", "opening_hours": "", "authentication": "", "brand": "", "network": "", "operator": ""}, "amenities": {"fee": false}}, {"id": "osm-7187961785", "name": "محطة شرق الرصافة الكهربائية", "type": "charging_station", "lat": 33.393324, "lon": 44.673153, "operator": "محطة شرق الرصافة الكهربائية", "address": {"street": "", "housenumber": "", "postcode": "", "city": "", "state": "", "country": ""}, "power": {"max_kw": null, "sockets": [], "capacity": 0}, "source": "osm", "tags": {"fee": "", "access": "", "opening_hours": "", "authentication": "", "brand": "", "network": "", "operator": "محطة شرق الرصافة الكهربائية"}, "amenities": {"fee": false}}, {"id": "osm-7902697185", "name": "محطة تفويل غاز للسيارة", "type": "charging_station", "lat": 33.355138, "lon": 44.277493, "operator": "محطة تفويل غاز للسيارة", "address": {"street": "", "housenumber": "", "postcode": "", "city": "", "state": "", "country": ""}, "power": {"max_kw": null, "sockets": [], "capacity": 0}, "source": "osm", "tags": {"fee": "", "access": "", "opening_hours": "", "authentication": "", "brand": "", "network": "", "operator": "محطة تفويل غاز للسيارة"}, "amenities": {"fee": false}}, {"id": "osm-9388097620", "name": "EV Charging Station", "type": "charging_station", "lat": 33.380731, "lon": 44.836636, "operator": "Unknown", "address": {"street": "", "housenumber": "", "postcode": "", "city": "", "state": "", "country": ""}, "power": {"max_kw": null, "sockets": [], "capacity": 0}, "source": "osm", "tags": {"fee": "", "access": "", "opening_hours": "", "authentication": "", "brand": "", "network": "", "operator": ""}, "amenities": {"fee": false}}, {"id": "osm-11291159469", "name": "EV Charging Station", "type": "charging_station", "lat": 33.319334, "lon": 44.446129, "operator": "Unknown", "address": {"street": "", "housenumber": "", "postcode": "", "city": "", "state": "", "country": ""}, "power": {"max_kw": null, "sockets": [], "capacity": 0}, "source": "osm", "tags": {"fee": "", "access": "", "opening_hours": "", "authentication": "", "brand": "", "network": "", "operator": ""}, "amenities": {"fee": false}}, {"id": "osm-12759462936", "name": "BMW", "type": "charging_station", "lat": 33.265203, "lon": 44.362258, "operator": "BMW", "address": {"street": "", "housenumber": "", "postcode": "", "city": "", "state": "", "country": ""}, "power": {"max_kw": null, "sockets": [], "capacity": 0}, "source": "osm", "tags": {"fee": "", "access": "", "opening_hours": "", "authentication": "", "brand": "BMW", "network": "", "operator": "BMW"}, "amenities": {"fee": false}}], "count": 6}