{"tile": "poi-tile-41-31", "lat": 41, "lon": 31, "stations": [{"id": "osm-12118320101", "name": "Trugo", "type": "charging_station", "lat": 41.273204, "lon": 31.431204, "operator": "Unknown", "address": {"street": "", "housenumber": "", "postcode": "", "city": "", "state": "", "country": ""}, "power": {"max_kw": null, "sockets": [], "capacity": 0}, "source": "osm", "tags": {"fee": "", "access": "", "opening_hours": "", "authentication": "", "brand": "", "network": "", "operator": ""}, "amenities": {"fee": false}}, {"id": "osm-12118322101", "name": "Ereylin Şarj İstasyonu", "type": "charging_station", "lat": 41.271715, "lon": 31.436497, "operator": "Unknown", "address": {"street": "", "housenumber": "", "postcode": "", "city": "", "state": "", "country": ""}, "power": {"max_kw": null, "sockets": [], "capacity": 0}, "source": "osm", "tags": {"fee": "", "access": "", "opening_hours": "", "authentication": "", "brand": "", "network": "", "operator": ""}, "amenities": {"fee": false}}, {"id": "osm-12581799783", "name": "Astro", "type": "charging_station", "lat": 41.085423, "lon": 31.177149, "operator": "Unknown", "address": {"street": "", "housenumber": "", "postcode": "", "city": "", "state": "", "country": ""}, "power": {"max_kw": null, "sockets": [], "capacity": 0}, "source": "osm", "tags": {"fee": "no", "access": "", "opening_hours": "24/7", "authentication": "", "brand": "Astro", "network": "", "operator": ""}, "amenities": {"fee": false}}, {"id": "osm-12582210901", "name": "EV Charging Station", "type": "charging_station", "lat": 41.25304, "lon": 31.423047, "operator": "Unknown", "address": {"street": "", "housenumber": "", "postcode": "", "city": "", "state": "", "country": ""}, "power": {"max_kw": null, "sockets": [], "capacity": 0}, "source": "osm", "tags": {"fee": "", "access": "", "opening_hours": "", "authentication": "", "brand": "", "network": "", "operator": ""}, "amenities": {"fee": false}}, {"id": "osm-12629462701", "name": "Trugo Şarj İstasyonu", "type": "charging_station", "lat": 41.082395, "lon": 31.176962, "operator": "Unknown", "address": {"street": "", "housenumber": "", "postcode": "", "city": "", "state": "", "country": ""}, "power": {"max_kw": null, "sockets": [], "capacity": 0}, "source": "osm", "tags": {"fee": "", "access": "", "opening_hours": "", "authentication": "", "brand": "", "network": "", "operator": ""}, "amenities": {"fee": false}}], "count": 5}