{"tile": "poi-tile-35-33", "lat": 35, "lon": 33, "stations": [{"id": "osm-1164922606", "name": "EV Charging Station", "type": "charging_station", "lat": 35.065234, "lon": 33.387585, "operator": "Unknown", "address": {"street": "", "housenumber": "", "postcode": "", "city": "", "state": "", "country": ""}, "power": {"max_kw": null, "sockets": [], "capacity": 0}, "source": "osm", "tags": {"fee": "", "access": "", "opening_hours": "", "authentication": "", "brand": "", "network": "", "operator": ""}, "amenities": {"fee": false}}, {"id": "osm-9893770006", "name": "EV Charging Station", "type": "charging_station", "lat": 35.18596, "lon": 33.350454, "operator": "Unknown", "address": {"street": "", "housenumber": "", "postcode": "", "city": "", "state": "", "country": ""}, "power": {"max_kw": null, "sockets": [], "capacity": 0}, "source": "osm", "tags": {"fee": "", "access": "", "opening_hours": "", "authentication": "", "brand": "", "network": "", "operator": ""}, "amenities": {"fee": false}}, {"id": "osm-10278969254", "name": "Alambra Bus Station", "type": "charging_station", "lat": 35.002789, "lon": 33.393304, "operator": "EAC", "address": {"street": "", "housenumber": "", "postcode": "", "city": "", "state": "", "country": ""}, "power": {"max_kw": null, "sockets": [], "capacity": 0}, "source": "osm", "tags": {"fee": "", "access": "", "opening_hours": "24/7", "authentication": "", "brand": "", "network": "", "operator": "EAC"}, "amenities": {"fee": false}}, {"id": "osm-10278969256", "name": "Public Works Department", "type": "charging_station", "lat": 35.139258, "lon": 33.335275, "operator": "EAC", "address": {"street": "", "housenumber": "", "postcode": "", "city": "", "state": "", "country": ""}, "power": {"max_kw": null, "sockets": [], "capacity": 0}, "source": "osm", "tags": {"fee": "", "access": "", "opening_hours": "24/7", "authentication": "", "brand": "", "network": "", "operator": "EAC"}, "amenities": {"fee": false}}, {"id": "osm-10278969257", "name": "Nicosia General Hospital", "type": "charging_station", "lat": 35.127697, "lon": 33.374962, "operator": "EAC", "address": {"street": "", "housenumber": "", "postcode": "", "city": "", "state": "", "country": ""}, "power": {"max_kw": null, "sockets": [], "capacity": 0}, "source": "osm", "tags": {"fee": "", "access": "", "opening_hours": "24/7", "authentication": "", "brand": "", "network": "", "operator": "EAC"}, "amenities": {"fee": false}}, {"id": "osm-10278969263", "name": "Paralimni Amphitheatre", "type": "charging_station", "lat": 35.040084, "lon": 33.983864, "operator": "EAC", "address": {"street": "", "housenumber": "", "postcode": "", "city": "", "state": "", "country": ""}, "power": {"max_kw": null, "sockets": [], "capacity": 0}, "source": "osm", "tags": {"fee": "", "access": "", "opening_hours": "24/7", "authentication": "", "brand": "", "network": "", "operator": "EAC"}, "amenities": {"fee": false}}, {"id": "osm-10278969270", "name": "Latsia Municipality Bldg", "type": "charging_station", "lat": 35.107448, "lon": 33.378068, "operator": "EAC", "address": {"street": "", "housenumber": "", "postcode": "", "city": "", "state": "", "country": ""}, "power": {"max_kw": null, "sockets": [], "capacity": 0}, "source": "osm", "tags": {"fee": "", "access": "", "opening_hours": "24/7", "authentication": "", "brand": "", "network": "", "operator": "EAC"}, "amenities": {"fee": false}}, {"id": "osm-10278969271", "name": "EAC Head Office", "type": "charging_station", "lat": 35.138809, "lon": 33.373362, "operator": "Electricity Authority of Cyprus", "address": {"street": "", "housenumber": "", "postcode": "", "city": "", "state": "", "country": ""}, "power": {"max_kw": null, "sockets": [], "capacity": 0}, "source": "osm", "tags": {"fee": "", "access": "", "opening_hours": "24/7", "authentication": "", "brand": "", "network": "", "operator": "Electricity Authority of Cyprus"}, "amenities": {"fee": false}}, {"id": "osm-10278969272", "name": "Lefkotheou - Papakyriakou Junction", "type": "charging_station", "lat": 35.148033, "lon": 33.316216, "operator": "EAC", "address": {"street": "", "housenumber": "", "postcode": "", "city": "", "state": "", "country": ""}, "power": {"max_kw": null, "sockets": [], "capacity": 0}, "source": "osm", "tags": {"fee": "", "access": "", "opening_hours": "24/7", "authentication": "", "brand": "", "network": "", "operator": "EAC"}, "amenities": {"fee": false}}, {"id": "osm-10278969273", "name": "Kyrinias-Mpoumpoulinas Junction", "type": "charging_station", "lat": 35.148981, "lon": 33.389477, "operator": "EAC", "address": {"street": "", "housenumber": "", "postcode": "", "city": "", "state": "", "country": ""}, "power": {"max_kw": null, "sockets": [], "capacity": 0}, "source": "osm", "tags": {"fee": "", "access": "", "opening_hours": "24/7", "authentication": "", "brand": "", "network": "", "operator": "EAC"}, "amenities": {"fee": false}}, {"id": "osm-10278969274", "name": "EAC Nicosia Area Office", "type": "charging_station", "lat": 35.164367, "lon": 33.362053, "operator": "EAC", "address": {"street": "", "housenumber": "", "postcode": "", "city": "", "state": "", "country": ""}, "power": {"max_kw": null, "sockets": [], "capacity": 0}, "source": "osm", "tags": {"fee": "", "access": "", "opening_hours": "24/7", "authentication": "", "brand": "", "network": "", "operator": "EAC"}, "amenities": {"fee": false}}, {"id": "osm-10278969275", "name": "Stovolou - Kantaras Junction", "type": "charging_station", "lat": 35.140763, "lon": 33.337463, "operator": "Electricity Authority of Cyprus", "address": {"street": "", "housenumber": "", "postcode": "", "city": "", "state": "", "country": ""}, "power": {"max_kw": null, "sockets": [], "capacity": 0}, "source": "osm", "tags": {"fee": "", "access": "", "opening_hours": "24/7", "authentication": "", "brand": "", "network": "", "operator": "Electricity Authority of Cyprus"}, "amenities": {"fee": false}}, {"id": "osm-10861764440", "name": "EV Charging Station", "type": "charging_station", "lat": 35.123275, "lon": 33.373619, "operator": "Unknown", "address": {"street": "", "housenumber": "", "postcode": "", "city": "", "state": "", "country": ""}, "power": {"max_kw": null, "sockets": [], "capacity": 0}, "source": "osm", "tags": {"fee": "no", "access": "", "opening_hours": "", "authentication": "", "brand": "", "network": "", "operator": ""}, "amenities": {"fee": false}}, {"id": "osm-10996686390", "name": "EV Power - Nicosia Mall", "type": "charging_station", "lat": 35.13526, "lon": 33.28043, "operator": "Nicosia Mall", "address": {"street": "", "housenumber": "", "postcode": "", "city": "", "state": "", "country": ""}, "power": {"max_kw": null, "sockets": [], "capacity": 0}, "source": "osm", "tags": {"fee": "no", "access": "yes", "opening_hours": "", "authentication": "", "brand": "EV Power - Nicosia Mall", "network": "", "operator": "Nicosia Mall"}, "amenities": {"fee": false}}, {"id": "osm-11225403114", "name": "Joltie", "type": "charging_station", "lat": 35.127635, "lon": 33.321106, "operator": "Unknown", "address": {"street": "", "housenumber": "", "postcode": "", "city": "", "state": "", "country": ""}, "power": {"max_kw": null, "sockets": [], "capacity": 0}, "source": "osm", "tags": {"fee": "", "access": "", "opening_hours": "", "authentication": "", "brand": "Joltie", "network": "", "operator": ""}, "amenities": {"fee": false}}, {"id": "osm-11225403115", "name": "Joltie", "type": "charging_station", "lat": 35.122986, "lon": 33.377142, "operator": "Unknown", "address": {"street": "", "housenumber": "", "postcode": "", "city": "", "state": "", "country": ""}, "power": {"max_kw": null, "sockets": [], "capacity": 0}, "source": "osm", "tags": {"fee": "", "access": "", "opening_hours": "", "authentication": "", "brand": "Joltie", "network": "", "operator": ""}, "amenities": {"fee": false}}, {"id": "osm-11225403116", "name": "Joltie", "type": "charging_station", "lat": 35.151081, "lon": 33.339924, "operator": "Unknown", "address": {"street": "", "housenumber": "", "postcode": "", "city": "", "state": "", "country": ""}, "power": {"max_kw": null, "sockets": [], "capacity": 0}, "source": "osm", "tags": {"fee": "", "access": "", "opening_hours": "", "authentication": "", "brand": "Joltie", "network": "", "operator": ""}, "amenities": {"fee": false}}, {"id": "osm-11225403117", "name": "Joltie", "type": "charging_station", "lat": 35.151998, "lon": 33.339013, "operator": "Unknown", "address": {"street": "", "housenumber": "", "postcode": "", "city": "", "state": "", "country": ""}, "power": {"max_kw": null, "sockets": [], "capacity": 0}, "source": "osm", "tags": {"fee": "", "access": "", "opening_hours": "", "authentication": "", "brand": "Joltie", "network": "", "operator": ""}, "amenities": {"fee": false}}, {"id": "osm-11428713169", "name": "Joltie", "type": "charging_station", "lat": 35.159742, "lon": 33.339049, "operator": "EUNICE", "address": {"street": "", "housenumber": "", "postcode": "", "city": "", "state": "", "country": ""}, "power": {"max_kw": null, "sockets": [], "capacity": 0}, "source": "osm", "tags": {"fee": "", "access": "", "opening_hours": "", "authentication": "", "brand": "", "network": "", "operator": "EUNICE"}, "amenities": {"fee": false}}, {"id": "osm-12004438693", "name": "Zes", "type": "charging_station", "lat": 35.330674, "lon": 33.297205, "operator": "Unknown", "address": {"street": "", "housenumber": "", "postcode": "", "city": "", "state": "", "country": ""}, "power": {"max_kw": null, "sockets": [], "capacity": 0}, "source": "osm", "tags": {"fee": "", "access": "", "opening_hours": "", "authentication": "", "brand": "Zes", "network": "", "operator": ""}, "amenities": {"fee": false}}, {"id": "osm-12004691854", "name": "Zes", "type": "charging_station", "lat": 35.330572, "lon": 33.296464, "operator": "Unknown", "address": {"street": "", "housenumber": "", "postcode": "", "city": "", "state": "", "country": ""}, "power": {"max_kw": null, "sockets": [], "capacity": 0}, "source": "osm", "tags": {"fee": "", "access": "", "opening_hours": "", "authentication": "", "brand": "Zes", "network": "", "operator": ""}, "amenities": {"fee": false}}, {"id": "osm-12203470885", "name": "Zes", "type": "charging_station", "lat": 35.332612, "lon": 33.333497, "operator": "Unknown", "address": {"street": "", "housenumber": "", "postcode": "", "city": "", "state": "", "country": ""}, "power": {"max_kw": null, "sockets": [], "capacity": 0}, "source": "osm", "tags": {"fee": "", "access": "", "opening_hours": "", "authentication": "", "brand": "Zes", "network": "", "operator": ""}, "amenities": {"fee": false}}, {"id": "osm-13164727283", "name": "Lidl", "type": "charging_station", "lat": 35.000043, "lon": 33.758804, "operator": "Lidl", "address": {"street": "", "housenumber": "", "postcode": "", "city": "", "state": "", "country": ""}, "power": {"max_kw": null, "sockets": [], "capacity": 0}, "source": "osm", "tags": {"fee": "yes", "access": "", "opening_hours": "", "authentication": "", "brand": "Lidl", "network": "", "operator": "Lidl"}, "amenities": {"fee": true}}, {"id": "osm-13173470588", "name": "Lidl", "type": "charging_station", "lat": 35.049293, "lon": 33.976438, "operator": "Lidl", "address": {"street": "", "housenumber": "", "postcode": "", "city": "", "state": "", "country": ""}, "power": {"max_kw": null, "sockets": [], "capacity": 0}, "source": "osm", "tags": {"fee": "yes", "access": "", "opening_hours": "", "authentication": "", "brand": "", "network": "", "operator": "Lidl"}, "amenities": {"fee": true}}, {"id": "osm-13283889583", "name": "pcharge", "type": "charging_station", "lat": 35.14814, "lon": 33.321211, "operator": "Unknown", "address": {"street": "", "housenumber": "", "postcode": "", "city": "", "state": "", "country": ""}, "power": {"max_kw": null, "sockets": [], "capacity": 0}, "source": "osm", "tags": {"fee": "", "access": "", "opening_hours": "", "authentication": "", "brand": "pcharge", "network": "", "operator": ""}, "amenities": {"fee": false}}], "count": 25}