{"tile": "poi-tile-10--85", "lat": 10, "lon": -85, "stations": [{"id": "osm-9508024989", "name": "Estación de Recarga", "type": "charging_station", "lat": 10.000197, "lon": -84.134604, "operator": "Estación de Recarga", "address": {"street": "Calle 38", "housenumber": "", "postcode": "", "city": "Mercedes", "state": "", "country": ""}, "power": {"max_kw": null, "sockets": [], "capacity": 0}, "source": "osm", "tags": {"fee": "", "access": "", "opening_hours": "", "authentication": "", "brand": "", "network": "", "operator": "Estación de Recarga"}, "amenities": {"fee": false}}, {"id": "osm-9647552905", "name": "Estación de carga Vara Blanca", "type": "charging_station", "lat": 10.158173, "lon": -84.155737, "operator": "ICE", "address": {"street": "", "housenumber": "", "postcode": "", "city": "", "state": "", "country": ""}, "power": {"max_kw": null, "sockets": [], "capacity": 0}, "source": "osm", "tags": {"fee": "", "access": "", "opening_hours": "", "authentication": "", "brand": "", "network": "", "operator": "ICE"}, "amenities": {"fee": false}}, {"id": "osm-9647552906", "name": "EV Charging Station", "type": "charging_station", "lat": 10.012952, "lon": -84.20639, "operator": "Unknown", "address": {"street": "", "housenumber": "", "postcode": "", "city": "", "state": "", "country": ""}, "power": {"max_kw": null, "sockets": [], "capacity": 0}, "source": "osm", "tags": {"fee": "", "access": "customers", "opening_hours": "", "authentication": "", "brand": "", "network": "", "operator": ""}, "amenities": {"fee": false}}, {"id": "osm-9647552934", "name": "Estación de Carga Holiday Inn Alajuela", "type": "charging_station", "lat": 10.000795, "lon": -84.195591, "operator": "Unknown", "address": {"street": "", "housenumber": "", "postcode": "", "city": "", "state": "", "country": ""}, "power": {"max_kw": null, "sockets": [], "capacity": 0}, "source": "osm", "tags": {"fee": "", "access": "", "opening_hours": "", "authentication": "", "brand": "", "network": "", "operator": ""}, "amenities": {"fee": false}}, {"id": "osm-9647552935", "name": "Estación de Carga San Joaquín", "type": "charging_station", "lat": 10.005835, "lon": -84.153372, "operator": "Unknown", "address": {"street": "", "housenumber": "", "postcode": "", "city": "", "state": "", "country": ""}, "power": {"max_kw": null, "sockets": [], "capacity": 0}, "source": "osm", "tags": {"fee": "", "access": "", "opening_hours": "", "authentication": "", "brand": "", "network": "", "operator": ""}, "amenities": {"fee": false}}, {"id": "osm-9647552944", "name": "Estación de Carga INA Heredia", "type": "charging_station", "lat": 10.001554, "lon": -84.114045, "operator": "Unknown", "address": {"street": "", "housenumber": "", "postcode": "", "city": "", "state": "", "country": ""}, "power": {"max_kw": null, "sockets": [], "capacity": 0}, "source": "osm", "tags": {"fee": "", "access": "", "opening_hours": "", "authentication": "", "brand": "", "network": "", "operator": ""}, "amenities": {"fee": false}}, {"id": "osm-9687358965", "name": "Estación de carga Vehículos eléctricos", "type": "charging_station", "lat": 10.098701, "lon": -84.468726, "operator": "ICE", "address": {"street": "", "housenumber": "", "postcode": "", "city": "", "state": "", "country": ""}, "power": {"max_kw": null, "sockets": [], "capacity": 0}, "source": "osm", "tags": {"fee": "", "access": "", "opening_hours": "", "authentication": "", "brand": "", "network": "", "operator": "ICE"}, "amenities": {"fee": false}}, {"id": "osm-9687358966", "name": "Estación de carga Parque Central San Ramón", "type": "charging_station", "lat": 10.087397, "lon": -84.469799, "operator": "Unknown", "address": {"street": "", "housenumber": "", "postcode": "", "city": "", "state": "", "country": ""}, "power": {"max_kw": null, "sockets": [], "capacity": 0}, "source": "osm", "tags": {"fee": "", "access": "", "opening_hours": "", "authentication": "", "brand": "", "network": "", "operator": ""}, "amenities": {"fee": false}}, {"id": "osm-9687358967", "name": "Estación de carga Grecia", "type": "charging_station", "lat": 10.072143, "lon": -84.313251, "operator": "Unknown", "address": {"street": "", "housenumber": "", "postcode": "", "city": "", "state": "", "country": ""}, "power": {"max_kw": null, "sockets": [], "capacity": 0}, "source": "osm", "tags": {"fee": "", "access": "", "opening_hours": "", "authentication": "", "brand": "", "network": "", "operator": ""}, "amenities": {"fee": false}}, {"id": "osm-9687358968", "name": "Estación de carga Sarapiquí", "type": "charging_station", "lat": 10.452299, "lon": -84.011731, "operator": "Unknown", "address": {"street": "", "housenumber": "", "postcode": "", "city": "", "state": "", "country": ""}, "power": {"max_kw": null, "sockets": [], "capacity": 0}, "source": "osm", "tags": {"fee": "", "access": "", "opening_hours": "", "authentication": "", "brand": "", "network": "", "operator": ""}, "amenities": {"fee": false}}, {"id": "osm-9687358992", "name": "ICE", "type": "charging_station", "lat": 10.157115, "lon": -84.196036, "operator": "ICE", "address": {"street": "", "housenumber": "", "postcode": "", "city": "", "state": "", "country": ""}, "power": {"max_kw": null, "sockets": [], "capacity": 0}, "source": "osm", "tags": {"fee": "", "access": "", "opening_hours": "", "authentication": "", "brand": "", "network": "", "operator": "ICE"}, "amenities": {"fee": false}}, {"id": "osm-9687358993", "name": "Estación de carga San Isidro", "type": "charging_station", "lat": 10.123709, "lon": -84.247702, "operator": "Enerza", "address": {"street": "", "housenumber": "", "postcode": "", "city": "", "state": "", "country": ""}, "power": {"max_kw": null, "sockets": [], "capacity": 0}, "source": "osm", "tags": {"fee": "", "access": "", "opening_hours": "", "authentication": "", "brand": "", "network": "", "operator": "Enerza"}, "amenities": {"fee": false}}, {"id": "osm-9687358994", "name": "Estación de carga Naranjo", "type": "charging_station", "lat": 10.051054, "lon": -84.361829, "operator": "Unknown", "address": {"street": "", "housenumber": "", "postcode": "", "city": "", "state": "", "country": ""}, "power": {"max_kw": null, "sockets": [], "capacity": 0}, "source": "osm", "tags": {"fee": "", "access": "", "opening_hours": "", "authentication": "", "brand": "", "network": "", "operator": ""}, "amenities": {"fee": false}}, {"id": "osm-9687359012", "name": "Estación de carga Banco Nacional de San Ramón", "type": "charging_station", "lat": 10.085729, "lon": -84.469851, "operator": "Unknown", "address": {"street": "", "housenumber": "", "postcode": "", "city": "", "state": "", "country": ""}, "power": {"max_kw": null, "sockets": [], "capacity": 0}, "source": "osm", "tags": {"fee": "", "access": "", "opening_hours": "", "authentication": "", "brand": "", "network": "", "operator": ""}, "amenities": {"fee": false}}, {"id": "osm-9687359013", "name": "Estación de Carga Plaza Tropicana", "type": "charging_station", "lat": 10.013154, "lon": -84.208657, "operator": "Unknown", "address": {"street": "", "housenumber": "", "postcode": "", "city": "", "state": "", "country": ""}, "power": {"max_kw": null, "sockets": [], "capacity": 0}, "source": "osm", "tags": {"fee": "", "access": "", "opening_hours": "", "authentication": "", "brand": "", "network": "", "operator": ""}, "amenities": {"fee": false}}, {"id": "osm-9687359014", "name": "Estación de carga Banco Nacional Alajuela", "type": "charging_station", "lat": 10.013039, "lon": -84.210498, "operator": "Unknown", "address": {"street": "", "housenumber": "", "postcode": "", "city": "", "state": "", "country": ""}, "power": {"max_kw": null, "sockets": [], "capacity": 0}, "source": "osm", "tags": {"fee": "", "access": "", "opening_hours": "", "authentication": "", "brand": "", "network": "", "operator": ""}, "amenities": {"fee": false}}, {"id": "osm-9687359021", "name": "Estación de carga Maxi Palí de Alajuela", "type": "charging_station", "lat": 10.012816, "lon": -84.222964, "operator": "Unknown", "address": {"street": "", "housenumber": "", "postcode": "", "city": "", "state": "", "country": ""}, "power": {"max_kw": null, "sockets": [], "capacity": 0}, "source": "osm", "tags": {"fee": "", "access": "", "opening_hours": "", "authentication": "", "brand": "", "network": "", "operator": ""}, "amenities": {"fee": false}}, {"id": "osm-9687359022", "name": "Estación de carga City Mall Área 1F", "type": "charging_station", "lat": 10.004819, "lon": -84.211419, "operator": "ICE", "address": {"street": "", "housenumber": "", "postcode": "", "city": "", "state": "", "country": ""}, "power": {"max_kw": null, "sockets": [], "capacity": 0}, "source": "osm", "tags": {"fee": "", "access": "", "opening_hours": "", "authentication": "", "brand": "", "network": "", "operator": "ICE"}, "amenities": {"fee": false}}, {"id": "osm-9687359023", "name": "Estación de carga Arenal", "type": "charging_station", "lat": 10.545122, "lon": -84.892812, "operator": "ICE", "address": {"street": "", "housenumber": "", "postcode": "", "city": "", "state": "", "country": ""}, "power": {"max_kw": null, "sockets": [], "capacity": 0}, "source": "osm", "tags": {"fee": "", "access": "", "opening_hours": "", "authentication": "", "brand": "", "network": "", "operator": "ICE"}, "amenities": {"fee": false}}, {"id": "osm-9687359031", "name": "Estación de carga Kioro", "type": "charging_station", "lat": 10.491512, "lon": -84.711556, "operator": "Unknown", "address": {"street": "", "housenumber": "", "postcode": "", "city": "", "state": "", "country": ""}, "power": {"max_kw": null, "sockets": [], "capacity": 0}, "source": "osm", "tags": {"fee": "", "access": "", "opening_hours": "", "authentication": "", "brand": "", "network": "", "operator": ""}, "amenities": {"fee": false}}, {"id": "osm-9687359032", "name": "Estación de carga Tabacón", "type": "charging_station", "lat": 10.491495, "lon": -84.722131, "operator": "Unknown", "address": {"street": "", "housenumber": "", "postcode": "", "city": "", "state": "", "country": ""}, "power": {"max_kw": null, "sockets": [], "capacity": 0}, "source": "osm", "tags": {"fee": "", "access": "", "opening_hours": "", "authentication": "", "brand": "", "network": "", "operator": ""}, "amenities": {"fee": false}}, {"id": "osm-9687359231", "name": "Estación de carga El Silencio", "type": "charging_station", "lat": 10.485167, "lon": -84.681584, "operator": "Unknown", "address": {"street": "", "housenumber": "", "postcode": "", "city": "", "state": "", "country": ""}, "power": {"max_kw": null, "sockets": [], "capacity": 0}, "source": "osm", "tags": {"fee": "", "access": "", "opening_hours": "", "authentication": "", "brand": "", "network": "", "operator": ""}, "amenities": {"fee": false}}, {"id": "osm-9687359235", "name": "Estación de carga Vista Arenal", "type": "charging_station", "lat": 10.469624, "lon": -84.654073, "operator": "Unknown", "address": {"street": "", "housenumber": "", "postcode": "", "city": "", "state": "", "country": ""}, "power": {"max_kw": null, "sockets": [], "capacity": 0}, "source": "osm", "tags": {"fee": "", "access": "", "opening_hours": "", "authentication": "", "brand": "", "network": "", "operator": ""}, "amenities": {"fee": false}}, {"id": "osm-9687359236", "name": "Estación de carga La Fortuna", "type": "charging_station", "lat": 10.47244, "lon": -84.644068, "operator": "Unknown", "address": {"street": "", "housenumber": "", "postcode": "", "city": "", "state": "", "country": ""}, "power": {"max_kw": null, "sockets": [], "capacity": 0}, "source": "osm", "tags": {"fee": "", "access": "", "opening_hours": "", "authentication": "", "brand": "", "network": "", "operator": ""}, "amenities": {"fee": false}}, {"id": "osm-9687359239", "name": "Estación de carga Peñas Blancas", "type": "charging_station", "lat": 10.427635, "lon": -84.750027, "operator": "Unknown", "address": {"street": "", "housenumber": "", "postcode": "", "city": "", "state": "", "country": ""}, "power": {"max_kw": null, "sockets": [], "capacity": 0}, "source": "osm", "tags": {"fee": "", "access": "", "opening_hours": "", "authentication": "", "brand": "", "network": "", "operator": ""}, "amenities": {"fee": false}}, {"id": "osm-9687359348", "name": "Estación de carga Aguas Zarcas", "type": "charging_station", "lat": 10.374998, "lon": -84.342873, "operator": "Unknown", "address": {"street": "", "housenumber": "", "postcode": "", "city": "", "state": "", "country": ""}, "power": {"max_kw": null, "sockets": [], "capacity": 0}, "source": "osm", "tags": {"fee": "", "access": "", "opening_hours": "", "authentication": "", "brand": "", "network": "", "operator": ""}, "amenities": {"fee": false}}, {"id": "osm-9687359349", "name": "Estación de carga Santa Rita", "type": "charging_station", "lat": 10.397185, "lon": -84.220961, "operator": "Unknown", "address": {"street": "", "housenumber": "", "postcode": "", "city": "", "state": "", "country": ""}, "power": {"max_kw": null, "sockets": [], "capacity": 0}, "source": "osm", "tags": {"fee": "", "access": "", "opening_hours": "", "authentication": "", "brand": "", "network": "", "operator": ""}, "amenities": {"fee": false}}, {"id": "osm-9689060130", "name": "Estación de carga Los Ángeles", "type": "charging_station", "lat": 10.202447, "lon": -84.484982, "operator": "Unknown", "address": {"street": "", "housenumber": "", "postcode": "", "city": "", "state": "", "country": ""}, "power": {"max_kw": null, "sockets": [], "capacity": 0}, "source": "osm", "tags": {"fee": "", "access": "", "opening_hours": "", "authentication": "", "brand": "", "network": "", "operator": ""}, "amenities": {"fee": false}}, {"id": "osm-10069132719", "name": "McDonald's Tomás Guardia", "type": "charging_station", "lat": 10.012389, "lon": -84.21015, "operator": "Unknown", "address": {"street": "", "housenumber": "", "postcode": "", "city": "", "state": "", "country": ""}, "power": {"max_kw": null, "sockets": [], "capacity": 0}, "source": "osm", "tags": {"fee": "", "access": "", "opening_hours": "", "authentication": "", "brand": "", "network": "", "operator": ""}, "amenities": {"fee": false}}, {"id": "osm-10112216151", "name": "EV Charging Station", "type": "charging_station", "lat": 10.498624, "lon": -84.686169, "operator": "Unknown", "address": {"street": "", "housenumber": "", "postcode": "", "city": "", "state": "", "country": ""}, "power": {"max_kw": null, "sockets": [], "capacity": 0}, "source": "osm", "tags": {"fee": "", "access": "", "opening_hours": "", "authentication": "", "brand": "", "network": "", "operator": ""}, "amenities": {"fee": false}}, {"id": "osm-10286620717", "name": "Estación de carga Los Higuerones", "type": "charging_station", "lat": 10.021566, "lon": -84.204422, "operator": "Unknown", "address": {"street": "", "housenumber": "", "postcode": "", "city": "", "state": "", "country": ""}, "power": {"max_kw": null, "sockets": [], "capacity": 0}, "source": "osm", "tags": {"fee": "", "access": "", "opening_hours": "", "authentication": "", "brand": "", "network": "", "operator": ""}, "amenities": {"fee": false}}, {"id": "osm-10294315214", "name": "Estación de carga Bac Alajuela", "type": "charging_station", "lat": 10.013485, "lon": -84.210948, "operator": "Unknown", "address": {"street": "", "housenumber": "", "postcode": "", "city": "", "state": "", "country": ""}, "power": {"max_kw": null, "sockets": [], "capacity": 0}, "source": "osm", "tags": {"fee": "", "access": "", "opening_hours": "", "authentication": "", "brand": "", "network": "", "operator": ""}, "amenities": {"fee": false}}, {"id": "osm-11052101825", "name": "EV Charging Station", "type": "charging_station", "lat": 10.01022, "lon": -84.225682, "operator": "Unknown", "address": {"street": "", "housenumber": "", "postcode": "", "city": "", "state": "", "country": ""}, "power": {"max_kw": null, "sockets": [], "capacity": 0}, "source": "osm", "tags": {"fee": "", "access": "", "opening_hours": "", "authentication": "", "brand": "", "network": "", "operator": ""}, "amenities": {"fee": false}}, {"id": "osm-11380439690", "name": "Hotel Arenal Manoa", "type": "charging_station", "lat": 10.502563, "lon": -84.678258, "operator": "Hotel Arenal Manoa", "address": {"street": "", "housenumber": "", "postcode": "", "city": "", "state": "", "country": ""}, "power": {"max_kw": null, "sockets": [], "capacity": 0}, "source": "osm", "tags": {"fee": "no", "access": "customers", "opening_hours": "24/7", "authentication": "", "brand": "", "network": "", "operator": "Hotel Arenal Manoa"}, "amenities": {"fee": false}}, {"id": "osm-11384425691", "name": "EV Charging Station", "type": "charging_station", "lat": 10.471554, "lon": -84.644757, "operator": "Unknown", "address": {"street": "", "housenumber": "", "postcode": "", "city": "", "state": "", "country": ""}, "power": {"max_kw": null, "sockets": [{"type": "Nema 5 20", "kw": null, "count": 8}], "capacity": 8}, "source": "osm", "tags": {"fee": "no", "access": "yes", "opening_hours": "", "authentication": "", "brand": "", "network": "", "operator": ""}, "amenities": {"fee": false}}, {"id": "osm-11811965335", "name": "Estación de Carga VE San Isidro", "type": "charging_station", "lat": 10.017713, "lon": -84.056021, "operator": "ESPH", "address": {"street": "", "housenumber": "", "postcode": "", "city": "", "state": "", "country": ""}, "power": {"max_kw": null, "sockets": [], "capacity": 0}, "source": "osm", "tags": {"fee": "yes", "access": "yes", "opening_hours": "", "authentication": "", "brand": "", "network": "", "operator": "ESPH"}, "amenities": {"fee": true}}, {"id": "osm-11847894772", "name": "Estación de carga VE", "type": "charging_station", "lat": 10.624364, "lon": -84.526221, "operator": "Coopelesca", "address": {"street": "", "housenumber": "", "postcode": "", "city": "", "state": "", "country": ""}, "power": {"max_kw": null, "sockets": [], "capacity": 0}, "source": "osm", "tags": {"fee": "yes", "access": "yes", "opening_hours": "", "authentication": "", "brand": "", "network": "", "operator": "Coopelesca"}, "amenities": {"fee": true}}, {"id": "osm-11874890369", "name": "EV Charging Station", "type": "charging_station", "lat": 10.313459, "lon": -84.815987, "operator": "Unknown", "address": {"street": "", "housenumber": "", "postcode": "", "city": "", "state": "", "country": ""}, "power": {"max_kw": null, "sockets": [], "capacity": 0}, "source": "osm", "tags": {"fee": "", "access": "", "opening_hours": "", "authentication": "", "brand": "", "network": "", "operator": ""}, "amenities": {"fee": false}}, {"id": "osm-11879443855", "name": "EV Charging Station", "type": "charging_station", "lat": 10.315498, "lon": -84.822874, "operator": "Unknown", "address": {"street": "", "housenumber": "", "postcode": "", "city": "", "state": "", "country": ""}, "power": {"max_kw": null, "sockets": [], "capacity": 0}, "source": "osm", "tags": {"fee": "", "access": "", "opening_hours": "", "authentication": "", "brand": "", "network": "", "operator": ""}, "amenities": {"fee": false}}, {"id": "osm-12749169975", "name": "EV Charging Station", "type": "charging_station", "lat": 10.321789, "lon": -84.243815, "operator": "Unknown", "address": {"street": "", "housenumber": "", "postcode": "", "city": "", "state": "", "country": ""}, "power": {"max_kw": null, "sockets": [], "capacity": 0}, "source": "osm", "tags": {"fee": "", "access": "customers", "opening_hours": "", "authentication": "", "brand": "", "network": "", "operator": ""}, "amenities": {"fee": false}}], "count": 40}