{"tile": "poi-tile--33-115", "lat": -33, "lon": 115, "stations": [{"id": "osm-3203111051", "name": "ChargePoint", "type": "charging_station", "lat": -32.034655, "lon": 115.834855, "operator": "ChargePoint", "address": {"street": "", "housenumber": "", "postcode": "", "city": "", "state": "", "country": ""}, "power": {"max_kw": null, "sockets": [], "capacity": 0}, "source": "osm", "tags": {"fee": "", "access": "", "opening_hours": "", "authentication": "", "brand": "ChargePoint", "network": "", "operator": "ChargePoint"}, "amenities": {"fee": false}}, {"id": "osm-9413056471", "name": "RAC", "type": "charging_station", "lat": -32.527699, "lon": 115.721203, "operator": "RAC", "address": {"street": "", "housenumber": "", "postcode": "", "city": "", "state": "", "country": ""}, "power": {"max_kw": null, "sockets": [], "capacity": 0}, "source": "osm", "tags": {"fee": "yes", "access": "yes", "opening_hours": "", "authentication": "", "brand": "RAC", "network": "", "operator": "RAC"}, "amenities": {"fee": true}}, {"id": "osm-9607930796", "name": "EV Charging Station", "type": "charging_station", "lat": -32.522369, "lon": 115.970335, "operator": "Unknown", "address": {"street": "", "housenumber": "", "postcode": "", "city": "", "state": "", "country": ""}, "power": {"max_kw": null, "sockets": [], "capacity": 0}, "source": "osm", "tags": {"fee": "", "access": "", "opening_hours": "", "authentication": "", "brand": "", "network": "", "operator": ""}, "amenities": {"fee": false}}, {"id": "osm-9682737335", "name": "EV Charging Station", "type": "charging_station", "lat": -32.058485, "lon": 115.746943, "operator": "Unknown", "address": {"street": "", "housenumber": "", "postcode": "", "city": "", "state": "", "country": ""}, "power": {"max_kw": null, "sockets": [], "capacity": 0}, "source": "osm", "tags": {"fee": "", "access": "", "opening_hours": "", "authentication": "", "brand": "", "network": "", "operator": ""}, "amenities": {"fee": false}}, {"id": "osm-9682737336", "name": "Tesla Destination Charger", "type": "charging_station", "lat": -32.05758, "lon": 115.746122, "operator": "Unknown", "address": {"street": "", "housenumber": "", "postcode": "", "city": "", "state": "", "country": ""}, "power": {"max_kw": null, "sockets": [], "capacity": 0}, "source": "osm", "tags": {"fee": "", "access": "", "opening_hours": "", "authentication": "", "brand": "Tesla", "network": "", "operator": ""}, "amenities": {"fee": false}}, {"id": "osm-9682737337", "name": "Tesla Destination Charger", "type": "charging_station", "lat": -32.057384, "lon": 115.747228, "operator": "Unknown", "address": {"street": "", "housenumber": "", "postcode": "", "city": "", "state": "", "country": ""}, "power": {"max_kw": null, "sockets": [], "capacity": 0}, "source": "osm", "tags": {"fee": "", "access": "", "opening_hours": "", "authentication": "", "brand": "Tesla", "network": "", "operator": ""}, "amenities": {"fee": false}}, {"id": "osm-10925453549", "name": "Tesla Destination Charger", "type": "charging_station", "lat": -32.039695, "lon": 115.904494, "operator": "Unknown", "address": {"street": "", "housenumber": "", "postcode": "", "city": "", "state": "", "country": ""}, "power": {"max_kw": null, "sockets": [], "capacity": 0}, "source": "osm", "tags": {"fee": "", "access": "customers", "opening_hours": "24/7", "authentication": "", "brand": "Tesla", "network": "", "operator": ""}, "amenities": {"fee": false}}, {"id": "osm-10967531522", "name": "EV Charging Station", "type": "charging_station", "lat": -32.530502, "lon": 115.720533, "operator": "Unknown", "address": {"street": "", "housenumber": "", "postcode": "", "city": "", "state": "", "country": ""}, "power": {"max_kw": null, "sockets": [], "capacity": 0}, "source": "osm", "tags": {"fee": "", "access": "", "opening_hours": "", "authentication": "", "brand": "", "network": "", "operator": ""}, "amenities": {"fee": false}}, {"id": "osm-11800735919", "name": "Tritium", "type": "charging_station", "lat": -32.007739, "lon": 115.893177, "operator": "Unknown", "address": {"street": "", "housenumber": "", "postcode": "", "city": "", "state": "", "country": ""}, "power": {"max_kw": null, "sockets": [], "capacity": 0}, "source": "osm", "tags": {"fee": "", "access": "", "opening_hours": "", "authentication": "", "brand": "Tritium", "network": "", "operator": ""}, "amenities": {"fee": false}}, {"id": "osm-11806155972", "name": "EVlink", "type": "charging_station", "lat": -32.041319, "lon": 115.763156, "operator": "EVlink", "address": {"street": "", "housenumber": "", "postcode": "", "city": "", "state": "", "country": ""}, "power": {"max_kw": null, "sockets": [], "capacity": 0}, "source": "osm", "tags": {"fee": "yes", "access": "", "opening_hours": "", "authentication": "", "brand": "EVlink", "network": "", "operator": "EVlink"}, "amenities": {"fee": true}}, {"id": "osm-12718341938", "name": "Evie", "type": "charging_station", "lat": -32.038683, "lon": 115.907647, "operator": "Evie Networks", "address": {"street": "", "housenumber": "", "postcode": "", "city": "", "state": "", "country": ""}, "power": {"max_kw": null, "sockets": [], "capacity": 0}, "source": "osm", "tags": {"fee": "", "access": "customers", "opening_hours": "24/7", "authentication": "", "brand": "Evie", "network": "", "operator": "Evie Networks"}, "amenities": {"fee": false}}, {"id": "osm-12718341939", "name": "Evie", "type": "charging_station", "lat": -32.038677, "lon": 115.907782, "operator": "Evie Networks", "address": {"street": "", "housenumber": "", "postcode": "", "city": "", "state": "", "country": ""}, "power": {"max_kw": null, "sockets": [], "capacity": 0}, "source": "osm", "tags": {"fee": "", "access": "customers", "opening_hours": "24/7", "authentication": "", "brand": "Evie", "network": "", "operator": "Evie Networks"}, "amenities": {"fee": false}}, {"id": "osm-12848118528", "name": "ChargeHub", "type": "charging_station", "lat": -32.03216, "lon": 115.832471, "operator": "ChargeHub", "address": {"street": "", "housenumber": "", "postcode": "", "city": "", "state": "", "country": ""}, "power": {"max_kw": null, "sockets": [], "capacity": 0}, "source": "osm", "tags": {"fee": "", "access": "", "opening_hours": "", "authentication": "", "brand": "", "network": "", "operator": "ChargeHub"}, "amenities": {"fee": false}}, {"id": "osm-12896018175", "name": "EV Charging Station", "type": "charging_station", "lat": -32.076616, "lon": 115.896682, "operator": "Unknown", "address": {"street": "", "housenumber": "", "postcode": "", "city": "", "state": "", "country": ""}, "power": {"max_kw": null, "sockets": [], "capacity": 0}, "source": "osm", "tags": {"fee": "", "access": "", "opening_hours": "", "authentication": "", "brand": "", "network": "", "operator": ""}, "amenities": {"fee": false}}, {"id": "osm-13688552801", "name": "Tesla Supercharger", "type": "charging_station", "lat": -32.103058, "lon": 115.76265, "operator": "Tesla", "address": {"street": "", "housenumber": "", "postcode": "", "city": "", "state": "", "country": ""}, "power": {"max_kw": null, "sockets": [], "capacity": 0}, "source": "osm", "tags": {"fee": "yes", "access": "yes", "opening_hours": "24/7", "authentication": "", "brand": "Tesla Supercharger", "network": "Supercharger", "operator": "Tesla"}, "amenities": {"fee": true}}], "count": 15}