{"tile": "poi-tile-19-79", "lat": 19, "lon": 79, "stations": [{"id": "osm-4376874204", "name": "PRSANNA", "type": "charging_station", "lat": 19.924521, "lon": 79.316811, "operator": "PRSANNA", "address": {"street": "", "housenumber": "", "postcode": "", "city": "", "state": "", "country": ""}, "power": {"max_kw": null, "sockets": [], "capacity": 0}, "source": "osm", "tags": {"fee": "", "access": "", "opening_hours": "", "authentication": "", "brand": "", "network": "", "operator": "PRSANNA"}, "amenities": {"fee": false}}, {"id": "osm-4376876211", "name": "EV Charging Station", "type": "charging_station", "lat": 19.967755, "lon": 79.308204, "operator": "Unknown", "address": {"street": "", "housenumber": "", "postcode": "", "city": "", "state": "", "country": ""}, "power": {"max_kw": null, "sockets": [], "capacity": 0}, "source": "osm", "tags": {"fee": "", "access": "", "opening_hours": "", "authentication": "", "brand": "", "network": "", "operator": ""}, "amenities": {"fee": false}}, {"id": "osm-4376876214", "name": "INDIAN OILS", "type": "charging_station", "lat": 19.958475, "lon": 79.316474, "operator": "INDIAN OILS", "address": {"street": "", "housenumber": "", "postcode": "", "city": "", "state": "", "country": ""}, "power": {"max_kw": null, "sockets": [], "capacity": 0}, "source": "osm", "tags": {"fee": "", "access": "", "opening_hours": "", "authentication": "", "brand": "", "network": "", "operator": "INDIAN OILS"}, "amenities": {"fee": false}}, {"id": "osm-4376877604", "name": "Hindustan petroleum", "type": "charging_station", "lat": 19.950323, "lon": 79.297953, "operator": "Hindustan petroleum", "address": {"street": "", "housenumber": "", "postcode": "", "city": "", "state": "", "country": ""}, "power": {"max_kw": null, "sockets": [], "capacity": 0}, "source": "osm", "tags": {"fee": "", "access": "", "opening_hours": "", "authentication": "", "brand": "", "network": "", "operator": "Hindustan petroleum"}, "amenities": {"fee": false}}, {"id": "osm-12135600916", "name": "Bharat Petroleum", "type": "charging_station", "lat": 19.97241, "lon": 79.287157, "operator": "KOTPALLIWAR", "address": {"street": "", "housenumber": "", "postcode": "", "city": "", "state": "", "country": ""}, "power": {"max_kw": null, "sockets": [], "capacity": 0}, "source": "osm", "tags": {"fee": "", "access": "", "opening_hours": "", "authentication": "", "brand": "", "network": "", "operator": "KOTPALLIWAR"}, "amenities": {"fee": false}}], "count": 5}