{
  "format": "routesync-poi-v1.5.0",
  "tile": {
    "lat": 43,
    "lon": 18,
    "bounds": {
      "south": 43,
      "north": 44,
      "west": 18,
      "east": 19
    }
  },
  "generated": "2026-04-16T14:52:46Z",
  "count": 25,
  "pois": [
    {
      "id": "osm-6167066542",
      "name": "Ladestation ProCredit Bank",
      "type": "charging_station",
      "lat": 43.858399,
      "lon": 18.401795,
      "operator": "ProCredit Bank",
      "address": {
        "country": "IT"
      },
      "power": {
        "max_kw": 3.7,
        "sockets": [
          {
            "type": "Type 2",
            "kw": 3.7,
            "count": 1
          }
        ],
        "capacity": 1
      },
      "source": "osm",
      "tags": {
        "access": "customers",
        "fee": "",
        "brand": "",
        "network": "",
        "opening_hours": ""
      }
    },
    {
      "id": "osm-6168211756",
      "name": "Ladeeinrichtung",
      "type": "charging_station",
      "lat": 43.858029,
      "lon": 18.400713,
      "operator": "Unbekannt",
      "address": {
        "country": "IT"
      },
      "power": {
        "capacity": 2
      },
      "source": "osm",
      "tags": {
        "access": "private",
        "fee": "",
        "brand": "",
        "network": "",
        "opening_hours": ""
      }
    },
    {
      "id": "osm-9911656136",
      "name": "AC Quattro",
      "type": "charging_station",
      "lat": 43.857529,
      "lon": 18.391792,
      "operator": "Unbekannt",
      "address": {
        "country": "IT"
      },
      "source": "osm",
      "tags": {
        "access": "",
        "fee": "",
        "brand": "",
        "network": "",
        "opening_hours": ""
      }
    },
    {
      "id": "osm-8880512881",
      "name": "Porsche VW Sarajevo",
      "type": "charging_station",
      "lat": 43.846523,
      "lon": 18.345902,
      "operator": "Unbekannt",
      "address": {
        "country": "IT"
      },
      "source": "osm",
      "tags": {
        "access": "",
        "fee": "",
        "brand": "",
        "network": "",
        "opening_hours": ""
      }
    },
    {
      "id": "osm-9790106364",
      "name": "Charging Station",
      "type": "charging_station",
      "lat": 43.847224,
      "lon": 18.337266,
      "operator": "Unbekannt",
      "address": {
        "country": "IT"
      },
      "source": "osm",
      "tags": {
        "access": "",
        "fee": "",
        "brand": "",
        "network": "",
        "opening_hours": ""
      }
    },
    {
      "id": "osm-8880535692",
      "name": "KSC Vogošća",
      "type": "charging_station",
      "lat": 43.900149,
      "lon": 18.343804,
      "operator": "Unbekannt",
      "address": {
        "country": "IT"
      },
      "source": "osm",
      "tags": {
        "access": "",
        "fee": "",
        "brand": "",
        "network": "",
        "opening_hours": ""
      }
    },
    {
      "id": "osm-8880536872",
      "name": "Javna podzemna garaža",
      "type": "charging_station",
      "lat": 43.858257,
      "lon": 18.43395,
      "operator": "Unbekannt",
      "address": {
        "country": "IT"
      },
      "source": "osm",
      "tags": {
        "access": "",
        "fee": "",
        "brand": "",
        "network": "",
        "opening_hours": ""
      }
    },
    {
      "id": "osm-8880537406",
      "name": "Javni parking",
      "type": "charging_station",
      "lat": 43.822052,
      "lon": 18.363405,
      "operator": "Unbekannt",
      "address": {
        "country": "IT"
      },
      "source": "osm",
      "tags": {
        "access": "",
        "fee": "",
        "brand": "",
        "network": "",
        "opening_hours": ""
      }
    },
    {
      "id": "osm-8880563263",
      "name": "Hager doo",
      "type": "charging_station",
      "lat": 43.904074,
      "lon": 18.365552,
      "operator": "Unbekannt",
      "address": {
        "country": "IT"
      },
      "source": "osm",
      "tags": {
        "access": "",
        "fee": "",
        "brand": "",
        "network": "",
        "opening_hours": ""
      }
    },
    {
      "id": "osm-8880564385",
      "name": "Sarajevo City Centre",
      "type": "charging_station",
      "lat": 43.855434,
      "lon": 18.408251,
      "operator": "Unbekannt",
      "address": {
        "country": "IT"
      },
      "source": "osm",
      "tags": {
        "access": "",
        "fee": "",
        "brand": "",
        "network": "",
        "opening_hours": ""
      }
    },
    {
      "id": "osm-8880564768",
      "name": "Energopetrol",
      "type": "charging_station",
      "lat": 43.849571,
      "lon": 18.371689,
      "operator": "Unbekannt",
      "address": {
        "country": "IT"
      },
      "power": {
        "capacity": 2
      },
      "source": "osm",
      "tags": {
        "access": "",
        "fee": "",
        "brand": "",
        "network": "",
        "opening_hours": ""
      }
    },
    {
      "id": "osm-8880565741",
      "name": "Renault Sarajevo Guma M",
      "type": "charging_station",
      "lat": 43.844807,
      "lon": 18.334353,
      "operator": "Unbekannt",
      "address": {
        "country": "IT"
      },
      "source": "osm",
      "tags": {
        "access": "",
        "fee": "",
        "brand": "",
        "network": "",
        "opening_hours": ""
      }
    },
    {
      "id": "osm-8880566782",
      "name": "EP BiH",
      "type": "charging_station",
      "lat": 43.852013,
      "lon": 18.386541,
      "operator": "Unbekannt",
      "address": {
        "country": "IT"
      },
      "source": "osm",
      "tags": {
        "access": "",
        "fee": "",
        "brand": "",
        "network": "",
        "opening_hours": ""
      }
    },
    {
      "id": "osm-9911643314",
      "name": "Mercator",
      "type": "charging_station",
      "lat": 43.857331,
      "lon": 18.384402,
      "operator": "Unbekannt",
      "address": {
        "country": "IT"
      },
      "source": "osm",
      "tags": {
        "access": "",
        "fee": "",
        "brand": "",
        "network": "",
        "opening_hours": ""
      }
    },
    {
      "id": "osm-8894423722",
      "name": "EP BiH",
      "type": "charging_station",
      "lat": 43.669495,
      "lon": 18.972996,
      "operator": "Unbekannt",
      "address": {
        "country": "IT"
      },
      "source": "osm",
      "tags": {
        "access": "",
        "fee": "",
        "brand": "",
        "network": "",
        "opening_hours": ""
      }
    },
    {
      "id": "osm-8898820416",
      "name": "Autoklinika",
      "type": "charging_station",
      "lat": 43.836052,
      "lon": 18.301783,
      "operator": "Unbekannt",
      "address": {
        "country": "IT"
      },
      "source": "osm",
      "tags": {
        "access": "",
        "fee": "",
        "brand": "",
        "network": "",
        "opening_hours": ""
      }
    },
    {
      "id": "osm-8898826882",
      "name": "BiHAMK",
      "type": "charging_station",
      "lat": 43.832375,
      "lon": 18.288891,
      "operator": "Unbekannt",
      "address": {
        "country": "IT"
      },
      "source": "osm",
      "tags": {
        "access": "",
        "fee": "",
        "brand": "",
        "network": "",
        "opening_hours": ""
      }
    },
    {
      "id": "osm-8898830755",
      "name": "SLT Lužansko polje",
      "type": "charging_station",
      "lat": 43.83184,
      "lon": 18.295116,
      "operator": "Unbekannt",
      "address": {
        "country": "IT"
      },
      "source": "osm",
      "tags": {
        "access": "",
        "fee": "",
        "brand": "",
        "network": "",
        "opening_hours": ""
      }
    },
    {
      "id": "osm-8898830972",
      "name": "Ibis Style",
      "type": "charging_station",
      "lat": 43.848167,
      "lon": 18.349396,
      "operator": "Unbekannt",
      "address": {
        "country": "IT"
      },
      "source": "osm",
      "tags": {
        "access": "",
        "fee": "",
        "brand": "",
        "network": "",
        "opening_hours": ""
      }
    },
    {
      "id": "osm-9911647156",
      "name": "Bingo City Center",
      "type": "charging_station",
      "lat": 43.850269,
      "lon": 18.353779,
      "operator": "Unbekannt",
      "address": {
        "country": "IT"
      },
      "source": "osm",
      "tags": {
        "access": "",
        "fee": "",
        "brand": "",
        "network": "",
        "opening_hours": ""
      }
    },
    {
      "id": "osm-10315685255",
      "name": "Bingo Garage",
      "type": "charging_station",
      "lat": 43.850649,
      "lon": 18.353167,
      "operator": "Porsche Sarajevo",
      "address": {
        "country": "IT"
      },
      "source": "osm",
      "tags": {
        "access": "",
        "fee": "",
        "brand": "",
        "network": "",
        "opening_hours": ""
      }
    },
    {
      "id": "osm-8898833593",
      "name": "Sarajevo International Airport",
      "type": "charging_station",
      "lat": 43.826428,
      "lon": 18.337133,
      "operator": "Unbekannt",
      "address": {
        "country": "IT"
      },
      "power": {
        "capacity": 2
      },
      "source": "osm",
      "tags": {
        "access": "",
        "fee": "",
        "brand": "",
        "network": "",
        "opening_hours": ""
      }
    },
    {
      "id": "osm-9911623895",
      "name": "Hotel Pino",
      "type": "charging_station",
      "lat": 43.837738,
      "lon": 18.453404,
      "operator": "Unbekannt",
      "address": {
        "country": "IT"
      },
      "source": "osm",
      "tags": {
        "access": "",
        "fee": "",
        "brand": "",
        "network": "",
        "opening_hours": ""
      }
    },
    {
      "id": "osm-9911655664",
      "name": "Općina Novo Sarajevo",
      "type": "charging_station",
      "lat": 43.85152,
      "lon": 18.383272,
      "operator": "Unbekannt",
      "address": {
        "country": "IT"
      },
      "power": {
        "capacity": 1
      },
      "source": "osm",
      "tags": {
        "access": "",
        "fee": "",
        "brand": "",
        "network": "",
        "opening_hours": ""
      }
    },
    {
      "id": "osm-1039693542",
      "name": "INA-EPBiH",
      "type": "charging_station",
      "lat": 43.841964,
      "lon": 18.125341,
      "operator": "Unbekannt",
      "address": {
        "country": "IT"
      },
      "source": "osm",
      "tags": {
        "access": "",
        "fee": "",
        "brand": "",
        "network": "",
        "opening_hours": ""
      }
    }
  ]
}