{"tile": "poi-tile-51-36", "lat": 51, "lon": 36, "stations": [{"id": "osm-9280352512", "name": "EV Charging Station", "type": "charging_station", "lat": 51.710133, "lon": 36.074908, "operator": "Unknown", "address": {"street": "", "housenumber": "", "postcode": "", "city": "", "state": "", "country": ""}, "power": {"max_kw": null, "sockets": [], "capacity": 0}, "source": "osm", "tags": {"fee": "", "access": "", "opening_hours": "", "authentication": "", "brand": "", "network": "", "operator": ""}, "amenities": {"fee": false}}, {"id": "osm-13105336887", "name": "Бери заряд!", "type": "charging_station", "lat": 51.733432, "lon": 36.192498, "operator": "Unknown", "address": {"street": "", "housenumber": "", "postcode": "", "city": "", "state": "", "country": ""}, "power": {"max_kw": null, "sockets": [], "capacity": 0}, "source": "osm", "tags": {"fee": "", "access": "", "opening_hours": "", "authentication": "", "brand": "Бери заряд!", "network": "", "operator": ""}, "amenities": {"fee": false}}, {"id": "osm-13123505858", "name": "Бери Заряд!", "type": "charging_station", "lat": 51.742074, "lon": 36.189585, "operator": "Unknown", "address": {"street": "", "housenumber": "", "postcode": "", "city": "", "state": "", "country": ""}, "power": {"max_kw": null, "sockets": [], "capacity": 0}, "source": "osm", "tags": {"fee": "", "access": "", "opening_hours": "", "authentication": "", "brand": "Бери Заряд!", "network": "", "operator": ""}, "amenities": {"fee": false}}, {"id": "osm-13140467963", "name": "Бери заряд!", "type": "charging_station", "lat": 51.750816, "lon": 36.227217, "operator": "Unknown", "address": {"street": "", "housenumber": "", "postcode": "", "city": "", "state": "", "country": ""}, "power": {"max_kw": null, "sockets": [], "capacity": 0}, "source": "osm", "tags": {"fee": "", "access": "", "opening_hours": "", "authentication": "", "brand": "Бери заряд!", "network": "", "operator": ""}, "amenities": {"fee": false}}, {"id": "osm-13422317911", "name": "Бери заряд", "type": "charging_station", "lat": 51.819202, "lon": 36.161078, "operator": "Unknown", "address": {"street": "", "housenumber": "", "postcode": "", "city": "", "state": "", "country": ""}, "power": {"max_kw": null, "sockets": [], "capacity": 0}, "source": "osm", "tags": {"fee": "", "access": "", "opening_hours": "Mo-Su 10:00-22:00", "authentication": "", "brand": "Бери заряд", "network": "", "operator": ""}, "amenities": {"fee": false}}, {"id": "osm-13459518072", "name": "Зарядная станция", "type": "charging_station", "lat": 51.698786, "lon": 36.161775, "operator": "Unknown", "address": {"street": "", "housenumber": "", "postcode": "", "city": "", "state": "", "country": ""}, "power": {"max_kw": null, "sockets": [], "capacity": 0}, "source": "osm", "tags": {"fee": "", "access": "", "opening_hours": "Mo-Fr 07:00-20:00", "authentication": "", "brand": "", "network": "", "operator": ""}, "amenities": {"fee": false}}], "count": 6}