{
  "format": "routesync-poi-v1.5.0",
  "tile": {
    "lat": 40,
    "lon": 9,
    "bounds": {
      "south": 40,
      "north": 41,
      "west": 9,
      "east": 10
    }
  },
  "generated": "2026-04-16T14:52:46Z",
  "count": 14,
  "pois": [
    {
      "id": "osm-3003437374",
      "name": "DINAclub - Stazione di Ricarica e-Bike",
      "type": "charging_station",
      "lat": 40.022833,
      "lon": 9.100694,
      "operator": "Repower",
      "address": {
        "country": "IT"
      },
      "source": "osm",
      "tags": {
        "access": "yes",
        "fee": "",
        "brand": "",
        "network": "DINAclub",
        "opening_hours": ""
      }
    },
    {
      "id": "osm-9142412433",
      "name": "Olbia Supercharger",
      "type": "charging_station",
      "lat": 40.906895,
      "lon": 9.515987,
      "operator": "Tesla",
      "address": {
        "country": "IT"
      },
      "power": {
        "max_kw": 250.0,
        "sockets": [
          {
            "type": "CCS (Type 2)",
            "kw": 250.0,
            "count": 4
          }
        ],
        "capacity": 4
      },
      "source": "osm",
      "tags": {
        "access": "yes",
        "fee": "yes",
        "brand": "Tesla Supercharger",
        "network": "",
        "opening_hours": "24/7"
      },
      "amenities": {
        "opening_hours": "24/7",
        "fee": true
      }
    },
    {
      "id": "osm-9970826103",
      "name": "Repower - DINAclub",
      "type": "charging_station",
      "lat": 40.28545,
      "lon": 9.635824,
      "operator": "Repower",
      "address": {
        "country": "IT"
      },
      "source": "osm",
      "tags": {
        "access": "",
        "fee": "",
        "brand": "",
        "network": "DINAclub",
        "opening_hours": ""
      }
    },
    {
      "id": "osm-9981942637",
      "name": "Enel X",
      "type": "charging_station",
      "lat": 40.014808,
      "lon": 9.230946,
      "operator": "Enel X",
      "address": {
        "country": "IT"
      },
      "source": "osm",
      "tags": {
        "access": "yes",
        "fee": "",
        "brand": "Enel X",
        "network": "",
        "opening_hours": ""
      }
    },
    {
      "id": "osm-10090476222",
      "name": "Enel X Way - EnelX",
      "type": "charging_station",
      "lat": 40.283815,
      "lon": 9.634245,
      "operator": "Enel X Way",
      "address": {
        "country": "IT"
      },
      "power": {
        "max_kw": 15.0,
        "sockets": [
          {
            "type": "Type 2",
            "kw": 15.0,
            "count": 2
          }
        ]
      },
      "source": "osm",
      "tags": {
        "access": "",
        "fee": "",
        "brand": "",
        "network": "EnelX",
        "opening_hours": ""
      }
    },
    {
      "id": "osm-11233944313",
      "name": "Enel X - EnelX",
      "type": "charging_station",
      "lat": 40.279429,
      "lon": 9.634211,
      "operator": "Enel X",
      "address": {
        "country": "IT"
      },
      "power": {
        "max_kw": 15.0,
        "sockets": [
          {
            "type": "Type 2",
            "kw": 15.0,
            "count": 2
          }
        ]
      },
      "source": "osm",
      "tags": {
        "access": "",
        "fee": "",
        "brand": "",
        "network": "EnelX",
        "opening_hours": ""
      }
    },
    {
      "id": "osm-11818095727",
      "name": "GaraGeeks - SB019 Sardegna",
      "type": "charging_station",
      "lat": 40.879221,
      "lon": 9.633746,
      "operator": "GaraGeeks",
      "address": {
        "country": "IT"
      },
      "source": "osm",
      "tags": {
        "access": "yes",
        "fee": "no",
        "brand": "SB019 Sardegna",
        "network": "",
        "opening_hours": ""
      },
      "amenities": {
        "fee": false
      }
    },
    {
      "id": "osm-11818107218",
      "name": "GaraGeeks - SB018 Sardegna",
      "type": "charging_station",
      "lat": 40.650399,
      "lon": 9.329333,
      "operator": "GaraGeeks",
      "address": {
        "country": "IT"
      },
      "source": "osm",
      "tags": {
        "access": "yes",
        "fee": "no",
        "brand": "SB018 Sardegna",
        "network": "",
        "opening_hours": ""
      },
      "amenities": {
        "fee": false
      }
    },
    {
      "id": "osm-12118341060",
      "name": "Ladeeinrichtung",
      "type": "charging_station",
      "lat": 40.649837,
      "lon": 9.331501,
      "operator": "Unbekannt",
      "address": {
        "country": "IT"
      },
      "source": "osm",
      "tags": {
        "access": "",
        "fee": "",
        "brand": "",
        "network": "",
        "opening_hours": ""
      }
    },
    {
      "id": "osm-11818108502",
      "name": "GaraGeeks - SB016 Sardegna",
      "type": "charging_station",
      "lat": 40.707537,
      "lon": 9.700793,
      "operator": "GaraGeeks",
      "address": {
        "country": "IT"
      },
      "source": "osm",
      "tags": {
        "access": "yes",
        "fee": "no",
        "brand": "SB016 Sardegna",
        "network": "",
        "opening_hours": ""
      },
      "amenities": {
        "fee": false
      }
    },
    {
      "id": "osm-11818533423",
      "name": "GaraGeeks - SHELTER ITCS Satta Nuoro",
      "type": "charging_station",
      "lat": 40.322903,
      "lon": 9.316266,
      "operator": "GaraGeeks",
      "address": {
        "country": "IT"
      },
      "source": "osm",
      "tags": {
        "access": "yes",
        "fee": "no",
        "brand": "SHELTER ITCS Satta Nuoro",
        "network": "",
        "opening_hours": ""
      },
      "amenities": {
        "fee": false
      }
    },
    {
      "id": "osm-11871162095",
      "name": "Ladestation Enel X",
      "type": "charging_station",
      "lat": 40.781459,
      "lon": 9.673363,
      "operator": "Enel X",
      "address": {
        "country": "IT"
      },
      "power": {
        "capacity": 3
      },
      "source": "osm",
      "tags": {
        "access": "",
        "fee": "",
        "brand": "",
        "network": "",
        "opening_hours": ""
      }
    },
    {
      "id": "osm-12049217516",
      "name": "Ladeeinrichtung",
      "type": "charging_station",
      "lat": 40.92572,
      "lon": 9.502236,
      "operator": "Unbekannt",
      "address": {
        "country": "IT"
      },
      "source": "osm",
      "tags": {
        "access": "",
        "fee": "",
        "brand": "",
        "network": "",
        "opening_hours": ""
      }
    },
    {
      "id": "osm-13283669764",
      "name": "Ladestation Enel X",
      "type": "charging_station",
      "lat": 40.381575,
      "lon": 9.606445,
      "operator": "Unbekannt",
      "address": {
        "country": "IT"
      },
      "source": "osm",
      "tags": {
        "access": "",
        "fee": "",
        "brand": "Enel X",
        "network": "",
        "opening_hours": ""
      }
    }
  ]
}