{"tile": "poi-tile-34-127", "lat": 34, "lon": 127, "stations": [{"id": "osm-4637418209", "name": "전기차 충전소", "type": "charging_station", "lat": 34.970369, "lon": 127.525583, "operator": "Unknown", "address": {"street": "", "housenumber": "", "postcode": "", "city": "", "state": "", "country": ""}, "power": {"max_kw": null, "sockets": [], "capacity": 0}, "source": "osm", "tags": {"fee": "", "access": "", "opening_hours": "", "authentication": "", "brand": "", "network": "", "operator": ""}, "amenities": {"fee": false}}, {"id": "osm-4639731675", "name": "가스 충전소", "type": "charging_station", "lat": 34.771952, "lon": 127.093595, "operator": "Unknown", "address": {"street": "", "housenumber": "", "postcode": "", "city": "", "state": "", "country": ""}, "power": {"max_kw": null, "sockets": [], "capacity": 0}, "source": "osm", "tags": {"fee": "", "access": "", "opening_hours": "", "authentication": "", "brand": "", "network": "", "operator": ""}, "amenities": {"fee": false}}, {"id": "osm-4788232213", "name": "동순천충전소", "type": "charging_station", "lat": 34.984414, "lon": 127.514208, "operator": "Unknown", "address": {"street": "", "housenumber": "", "postcode": "", "city": "", "state": "", "country": ""}, "power": {"max_kw": null, "sockets": [], "capacity": 0}, "source": "osm", "tags": {"fee": "", "access": "", "opening_hours": "", "authentication": "", "brand": "", "network": "", "operator": ""}, "amenities": {"fee": false}}, {"id": "osm-9119075215", "name": "순천 테슬라 슈퍼차저", "type": "charging_station", "lat": 34.963071, "lon": 127.525519, "operator": "Tesla", "address": {"street": "", "housenumber": "", "postcode": "", "city": "", "state": "", "country": ""}, "power": {"max_kw": null, "sockets": [{"type": "Nacs", "kw": null, "count": 8}], "capacity": 8}, "source": "osm", "tags": {"fee": "yes", "access": "yes", "opening_hours": "24/7", "authentication": "", "brand": "Tesla Supercharger", "network": "", "operator": "Tesla"}, "amenities": {"fee": true}}, {"id": "osm-13688625603", "name": "EV Charging Station", "type": "charging_station", "lat": 34.961693, "lon": 127.56504, "operator": "Unknown", "address": {"street": "", "housenumber": "", "postcode": "", "city": "", "state": "", "country": ""}, "power": {"max_kw": null, "sockets": [], "capacity": 0}, "source": "osm", "tags": {"fee": "yes", "access": "yes", "opening_hours": "24/7", "authentication": "", "brand": "", "network": "", "operator": ""}, "amenities": {"fee": true}}, {"id": "osm-13688627004", "name": "EV Charging Station", "type": "charging_station", "lat": 34.722156, "lon": 127.70012, "operator": "Unknown", "address": {"street": "", "housenumber": "", "postcode": "", "city": "", "state": "", "country": ""}, "power": {"max_kw": null, "sockets": [], "capacity": 0}, "source": "osm", "tags": {"fee": "yes", "access": "yes", "opening_hours": "24/7", "authentication": "", "brand": "", "network": "", "operator": ""}, "amenities": {"fee": true}}], "count": 6}