{"tile": "poi-tile-33-120", "lat": 33, "lon": 120, "stations": [{"id": "osm-13026952928", "name": "小鹏超充站", "type": "charging_station", "lat": 33.388379, "lon": 120.232919, "operator": "Unknown", "address": {"street": "", "housenumber": "", "postcode": "", "city": "", "state": "", "country": ""}, "power": {"max_kw": null, "sockets": [], "capacity": 0}, "source": "osm", "tags": {"fee": "", "access": "", "opening_hours": "", "authentication": "", "brand": "小鹏", "network": "", "operator": ""}, "amenities": {"fee": false}}, {"id": "osm-13033632528", "name": "蔚来超充站", "type": "charging_station", "lat": 33.55598, "lon": 120.203943, "operator": "Unknown", "address": {"street": "", "housenumber": "", "postcode": "", "city": "", "state": "", "country": ""}, "power": {"max_kw": null, "sockets": [], "capacity": 0}, "source": "osm", "tags": {"fee": "", "access": "", "opening_hours": "", "authentication": "", "brand": "NIO Power", "network": "", "operator": ""}, "amenities": {"fee": false}}, {"id": "osm-13343864535", "name": "盐城奕电新能源科技有限公司充电站", "type": "charging_station", "lat": 33.396134, "lon": 120.243482, "operator": "Unknown", "address": {"street": "", "housenumber": "", "postcode": "", "city": "", "state": "", "country": ""}, "power": {"max_kw": null, "sockets": [], "capacity": 0}, "source": "osm", "tags": {"fee": "", "access": "", "opening_hours": "", "authentication": "", "brand": "", "network": "", "operator": ""}, "amenities": {"fee": false}}, {"id": "osm-13432604781", "name": "盐城市大丰区老鸿安物流有限公司充电站", "type": "charging_station", "lat": 33.188146, "lon": 120.396902, "operator": "Unknown", "address": {"street": "", "housenumber": "", "postcode": "", "city": "", "state": "", "country": ""}, "power": {"max_kw": null, "sockets": [], "capacity": 0}, "source": "osm", "tags": {"fee": "", "access": "", "opening_hours": "", "authentication": "", "brand": "", "network": "", "operator": ""}, "amenities": {"fee": false}}, {"id": "osm-13437899155", "name": "盐城市瑞程祥新能源科技有限公司充电站", "type": "charging_station", "lat": 33.423458, "lon": 120.081915, "operator": "Unknown", "address": {"street": "", "housenumber": "", "postcode": "", "city": "", "state": "", "country": ""}, "power": {"max_kw": null, "sockets": [], "capacity": 0}, "source": "osm", "tags": {"fee": "", "access": "", "opening_hours": "", "authentication": "", "brand": "", "network": "", "operator": ""}, "amenities": {"fee": false}}, {"id": "osm-13720991310", "name": "石化易电", "type": "charging_station", "lat": 33.524477, "lon": 120.006208, "operator": "Unknown", "address": {"street": "", "housenumber": "", "postcode": "", "city": "", "state": "", "country": ""}, "power": {"max_kw": null, "sockets": [], "capacity": 0}, "source": "osm", "tags": {"fee": "", "access": "", "opening_hours": "", "authentication": "", "brand": "石化易电", "network": "", "operator": ""}, "amenities": {"fee": false}}], "count": 6}