{"tile": "poi-tile-40-30", "lat": 40, "lon": 30, "stations": [{"id": "osm-5859448469", "name": "Gersan 63A Eşarj 32A", "type": "charging_station", "lat": 40.759915, "lon": 30.421282, "operator": "Renault Ernaz Sakarya", "address": {"street": "", "housenumber": "", "postcode": "", "city": "", "state": "", "country": ""}, "power": {"max_kw": null, "sockets": [{"type": "Type2", "kw": null, "count": 2}], "capacity": 2}, "source": "osm", "tags": {"fee": "", "access": "", "opening_hours": "", "authentication": "", "brand": "", "network": "", "operator": "Renault Ernaz Sakarya"}, "amenities": {"fee": false}}, {"id": "osm-7077989423", "name": "SHARZ Riada Hotel", "type": "charging_station", "lat": 40.770978, "lon": 30.395071, "operator": "SHARZ", "address": {"street": "Yenidoğan Mahallesi, Ana Sk. No:49, 54100 Adapazarı/Sakarya", "housenumber": "", "postcode": "", "city": "ADAPAZARI", "state": "", "country": ""}, "power": {"max_kw": null, "sockets": [{"type": "Type2", "kw": null, "count": 1}], "capacity": 1}, "source": "osm", "tags": {"fee": "yes", "access": "", "opening_hours": "24/7", "authentication": "", "brand": "", "network": "", "operator": "SHARZ"}, "amenities": {"fee": true}}, {"id": "osm-8898271351", "name": "ZES Elektrikli Şarj İstasyonu", "type": "charging_station", "lat": 40.734715, "lon": 30.029756, "operator": "ZES", "address": {"street": "", "housenumber": "", "postcode": "", "city": "", "state": "", "country": ""}, "power": {"max_kw": null, "sockets": [], "capacity": 0}, "source": "osm", "tags": {"fee": "no", "access": "", "opening_hours": "", "authentication": "", "brand": "", "network": "", "operator": "ZES"}, "amenities": {"fee": false}}, {"id": "osm-9444475163", "name": "Tesla Supercharger", "type": "charging_station", "lat": 40.750969, "lon": 30.699312, "operator": "Tesla", "address": {"street": "", "housenumber": "", "postcode": "", "city": "", "state": "", "country": ""}, "power": {"max_kw": null, "sockets": [], "capacity": 0}, "source": "osm", "tags": {"fee": "", "access": "", "opening_hours": "", "authentication": "", "brand": "Tesla Supercharger", "network": "", "operator": "Tesla, Inc."}, "amenities": {"fee": false}}, {"id": "osm-10826917306", "name": "Togg Trugo", "type": "charging_station", "lat": 40.84376, "lon": 30.283575, "operator": "Unknown", "address": {"street": "", "housenumber": "", "postcode": "", "city": "", "state": "", "country": ""}, "power": {"max_kw": null, "sockets": [], "capacity": 0}, "source": "osm", "tags": {"fee": "", "access": "", "opening_hours": "", "authentication": "", "brand": "", "network": "", "operator": ""}, "amenities": {"fee": false}}, {"id": "osm-10826917406", "name": "Togg Trugo", "type": "charging_station", "lat": 40.801487, "lon": 30.850305, "operator": "Unknown", "address": {"street": "", "housenumber": "", "postcode": "", "city": "", "state": "", "country": ""}, "power": {"max_kw": null, "sockets": [], "capacity": 0}, "source": "osm", "tags": {"fee": "", "access": "", "opening_hours": "", "authentication": "", "brand": "", "network": "", "operator": ""}, "amenities": {"fee": false}}, {"id": "osm-10826917408", "name": "Togg Trugo", "type": "charging_station", "lat": 40.703184, "lon": 30.313286, "operator": "Unknown", "address": {"street": "", "housenumber": "", "postcode": "", "city": "", "state": "", "country": ""}, "power": {"max_kw": null, "sockets": [], "capacity": 0}, "source": "osm", "tags": {"fee": "", "access": "", "opening_hours": "", "authentication": "", "brand": "", "network": "", "operator": ""}, "amenities": {"fee": false}}, {"id": "osm-10826917409", "name": "Togg Trugo", "type": "charging_station", "lat": 40.692124, "lon": 30.282484, "operator": "Unknown", "address": {"street": "", "housenumber": "", "postcode": "", "city": "", "state": "", "country": ""}, "power": {"max_kw": null, "sockets": [], "capacity": 0}, "source": "osm", "tags": {"fee": "", "access": "", "opening_hours": "", "authentication": "", "brand": "", "network": "", "operator": ""}, "amenities": {"fee": false}}, {"id": "osm-10826917410", "name": "Togg Trugo", "type": "charging_station", "lat": 40.844438, "lon": 30.288117, "operator": "Unknown", "address": {"street": "", "housenumber": "", "postcode": "", "city": "", "state": "", "country": ""}, "power": {"max_kw": null, "sockets": [], "capacity": 0}, "source": "osm", "tags": {"fee": "", "access": "", "opening_hours": "", "authentication": "", "brand": "", "network": "", "operator": ""}, "amenities": {"fee": false}}, {"id": "osm-10826917505", "name": "Togg Trugo", "type": "charging_station", "lat": 40.807221, "lon": 30.858397, "operator": "Unknown", "address": {"street": "", "housenumber": "", "postcode": "", "city": "", "state": "", "country": ""}, "power": {"max_kw": null, "sockets": [], "capacity": 0}, "source": "osm", "tags": {"fee": "", "access": "", "opening_hours": "", "authentication": "", "brand": "", "network": "", "operator": ""}, "amenities": {"fee": false}}, {"id": "osm-10826917608", "name": "Togg Trugo", "type": "charging_station", "lat": 40.733764, "lon": 30.41326, "operator": "Unknown", "address": {"street": "", "housenumber": "", "postcode": "", "city": "", "state": "", "country": ""}, "power": {"max_kw": null, "sockets": [], "capacity": 0}, "source": "osm", "tags": {"fee": "", "access": "", "opening_hours": "", "authentication": "", "brand": "", "network": "", "operator": ""}, "amenities": {"fee": false}}], "count": 11}