{"tile": "poi-tile-46-142", "lat": 46, "lon": 142, "stations": [{"id": "osm-9323463547", "name": "EV Charging Station", "type": "charging_station", "lat": 46.927564, "lon": 142.733171, "operator": "Unknown", "address": {"street": "", "housenumber": "", "postcode": "", "city": "", "state": "", "country": ""}, "power": {"max_kw": null, "sockets": [], "capacity": 0}, "source": "osm", "tags": {"fee": "", "access": "", "opening_hours": "", "authentication": "", "brand": "", "network": "", "operator": ""}, "amenities": {"fee": false}}, {"id": "osm-9936807822", "name": "ЭлектроАЗС", "type": "charging_station", "lat": 46.953858, "lon": 142.760868, "operator": "Русгидро", "address": {"street": "", "housenumber": "", "postcode": "", "city": "", "state": "", "country": ""}, "power": {"max_kw": null, "sockets": [], "capacity": 0}, "source": "osm", "tags": {"fee": "", "access": "", "opening_hours": "", "authentication": "", "brand": "", "network": "", "operator": "Русгидро"}, "amenities": {"fee": false}}, {"id": "osm-9991972575", "name": "ООО Электрокар Сахалин", "type": "charging_station", "lat": 46.966217, "lon": 142.752869, "operator": "ООО Электрокар Сахалин", "address": {"street": "", "housenumber": "", "postcode": "", "city": "", "state": "", "country": ""}, "power": {"max_kw": null, "sockets": [], "capacity": 0}, "source": "osm", "tags": {"fee": "yes", "access": "", "opening_hours": "", "authentication": "", "brand": "", "network": "", "operator": "ООО Электрокар Сахалин"}, "amenities": {"fee": true}}, {"id": "osm-10166324806", "name": "РусГидро", "type": "charging_station", "lat": 46.954724, "lon": 142.739367, "operator": "РусГидро", "address": {"street": "", "housenumber": "", "postcode": "", "city": "", "state": "", "country": ""}, "power": {"max_kw": null, "sockets": [], "capacity": 0}, "source": "osm", "tags": {"fee": "yes", "access": "", "opening_hours": "", "authentication": "", "brand": "", "network": "", "operator": "РусГидро"}, "amenities": {"fee": true}}, {"id": "osm-10267005500", "name": "EV-Time", "type": "charging_station", "lat": 46.954832, "lon": 142.738978, "operator": "EV-Time", "address": {"street": "", "housenumber": "", "postcode": "", "city": "", "state": "", "country": ""}, "power": {"max_kw": null, "sockets": [], "capacity": 0}, "source": "osm", "tags": {"fee": "yes", "access": "", "opening_hours": "", "authentication": "", "brand": "", "network": "", "operator": "EV-Time"}, "amenities": {"fee": true}}, {"id": "osm-10267005501", "name": "EV-Time", "type": "charging_station", "lat": 46.955902, "lon": 142.741513, "operator": "EV-Time", "address": {"street": "", "housenumber": "", "postcode": "", "city": "", "state": "", "country": ""}, "power": {"max_kw": null, "sockets": [], "capacity": 0}, "source": "osm", "tags": {"fee": "yes", "access": "", "opening_hours": "", "authentication": "", "brand": "", "network": "", "operator": "EV-Time"}, "amenities": {"fee": true}}, {"id": "osm-10267005502", "name": "EV-Time", "type": "charging_station", "lat": 46.935064, "lon": 142.758129, "operator": "EV-Time", "address": {"street": "", "housenumber": "", "postcode": "", "city": "", "state": "", "country": ""}, "power": {"max_kw": null, "sockets": [], "capacity": 0}, "source": "osm", "tags": {"fee": "yes", "access": "", "opening_hours": "", "authentication": "", "brand": "", "network": "", "operator": "EV-Time"}, "amenities": {"fee": true}}, {"id": "osm-10267005503", "name": "EV-Time", "type": "charging_station", "lat": 46.944426, "lon": 142.731344, "operator": "EV-Time", "address": {"street": "", "housenumber": "", "postcode": "", "city": "", "state": "", "country": ""}, "power": {"max_kw": null, "sockets": [], "capacity": 0}, "source": "osm", "tags": {"fee": "yes", "access": "", "opening_hours": "", "authentication": "", "brand": "", "network": "", "operator": "EV-Time"}, "amenities": {"fee": true}}, {"id": "osm-10270579393", "name": "TOUCH", "type": "charging_station", "lat": 46.90166, "lon": 142.750922, "operator": "TOUCH", "address": {"street": "", "housenumber": "", "postcode": "", "city": "", "state": "", "country": ""}, "power": {"max_kw": null, "sockets": [], "capacity": 0}, "source": "osm", "tags": {"fee": "yes", "access": "", "opening_hours": "", "authentication": "", "brand": "", "network": "", "operator": "TOUCH"}, "amenities": {"fee": true}}, {"id": "osm-12124171624", "name": "РусГидро", "type": "charging_station", "lat": 46.614792, "lon": 142.771871, "operator": "РусГидро", "address": {"street": "", "housenumber": "", "postcode": "", "city": "", "state": "", "country": ""}, "power": {"max_kw": null, "sockets": [], "capacity": 0}, "source": "osm", "tags": {"fee": "", "access": "", "opening_hours": "", "authentication": "", "brand": "РусГидро", "network": "", "operator": "РусГидро"}, "amenities": {"fee": false}}, {"id": "osm-13586139572", "name": "EvTime", "type": "charging_station", "lat": 46.952274, "lon": 142.736085, "operator": "Unknown", "address": {"street": "", "housenumber": "", "postcode": "", "city": "", "state": "", "country": ""}, "power": {"max_kw": null, "sockets": [], "capacity": 0}, "source": "osm", "tags": {"fee": "yes", "access": "", "opening_hours": "", "authentication": "", "brand": "EvTime", "network": "", "operator": ""}, "amenities": {"fee": true}}], "count": 11}