{"tile": "poi-tile-35-115", "lat": 35, "lon": 115, "stations": [{"id": "osm-9387204539", "name": "鑫鑫充电站", "type": "charging_station", "lat": 35.747304, "lon": 115.065871, "operator": "Unknown", "address": {"street": "", "housenumber": "", "postcode": "", "city": "", "state": "", "country": ""}, "power": {"max_kw": null, "sockets": [], "capacity": 0}, "source": "osm", "tags": {"fee": "", "access": "", "opening_hours": "", "authentication": "", "brand": "", "network": "", "operator": ""}, "amenities": {"fee": false}}, {"id": "osm-9457106248", "name": "EV Charging Station", "type": "charging_station", "lat": 35.784721, "lon": 115.05471, "operator": "Unknown", "address": {"street": "", "housenumber": "", "postcode": "", "city": "", "state": "", "country": ""}, "power": {"max_kw": null, "sockets": [], "capacity": 0}, "source": "osm", "tags": {"fee": "yes", "access": "", "opening_hours": "", "authentication": "", "brand": "", "network": "", "operator": ""}, "amenities": {"fee": true}}, {"id": "osm-9460206926", "name": "EV Charging Station", "type": "charging_station", "lat": 35.800854, "lon": 115.057836, "operator": "Unknown", "address": {"street": "", "housenumber": "", "postcode": "", "city": "", "state": "", "country": ""}, "power": {"max_kw": null, "sockets": [], "capacity": 0}, "source": "osm", "tags": {"fee": "", "access": "", "opening_hours": "", "authentication": "", "brand": "", "network": "", "operator": ""}, "amenities": {"fee": false}}, {"id": "osm-11704659574", "name": "EV Charging Station", "type": "charging_station", "lat": 35.794643, "lon": 115.051684, "operator": "Unknown", "address": {"street": "", "housenumber": "", "postcode": "", "city": "", "state": "", "country": ""}, "power": {"max_kw": null, "sockets": [], "capacity": 0}, "source": "osm", "tags": {"fee": "", "access": "", "opening_hours": "", "authentication": "", "brand": "", "network": "", "operator": ""}, "amenities": {"fee": false}}, {"id": "osm-11774892179", "name": "EV Charging Station", "type": "charging_station", "lat": 35.780599, "lon": 115.025906, "operator": "Unknown", "address": {"street": "", "housenumber": "", "postcode": "", "city": "", "state": "", "country": ""}, "power": {"max_kw": null, "sockets": [], "capacity": 0}, "source": "osm", "tags": {"fee": "", "access": "", "opening_hours": "", "authentication": "", "brand": "", "network": "", "operator": ""}, "amenities": {"fee": false}}, {"id": "osm-11774892181", "name": "佳车汇", "type": "charging_station", "lat": 35.777017, "lon": 115.025937, "operator": "Unknown", "address": {"street": "", "housenumber": "", "postcode": "", "city": "", "state": "", "country": ""}, "power": {"max_kw": null, "sockets": [], "capacity": 0}, "source": "osm", "tags": {"fee": "", "access": "", "opening_hours": "", "authentication": "", "brand": "佳车汇", "network": "", "operator": ""}, "amenities": {"fee": false}}, {"id": "osm-11774892182", "name": "濮汇充电站", "type": "charging_station", "lat": 35.772553, "lon": 115.030541, "operator": "Unknown", "address": {"street": "", "housenumber": "", "postcode": "", "city": "", "state": "", "country": ""}, "power": {"max_kw": null, "sockets": [], "capacity": 0}, "source": "osm", "tags": {"fee": "yes", "access": "", "opening_hours": "", "authentication": "", "brand": "", "network": "", "operator": ""}, "amenities": {"fee": true}}, {"id": "osm-11804802881", "name": "EV Charging Station", "type": "charging_station", "lat": 35.754621, "lon": 115.032147, "operator": "Unknown", "address": {"street": "", "housenumber": "", "postcode": "", "city": "", "state": "", "country": ""}, "power": {"max_kw": null, "sockets": [], "capacity": 0}, "source": "osm", "tags": {"fee": "", "access": "", "opening_hours": "", "authentication": "", "brand": "", "network": "", "operator": ""}, "amenities": {"fee": false}}, {"id": "osm-11816357475", "name": "佳车汇", "type": "charging_station", "lat": 35.772429, "lon": 115.013874, "operator": "Unknown", "address": {"street": "", "housenumber": "", "postcode": "", "city": "", "state": "", "country": ""}, "power": {"max_kw": null, "sockets": [], "capacity": 0}, "source": "osm", "tags": {"fee": "", "access": "", "opening_hours": "", "authentication": "", "brand": "佳车汇", "network": "", "operator": ""}, "amenities": {"fee": false}}, {"id": "osm-11850452373", "name": "EV Charging Station", "type": "charging_station", "lat": 35.78694, "lon": 115.118651, "operator": "Unknown", "address": {"street": "", "housenumber": "", "postcode": "", "city": "", "state": "", "country": ""}, "power": {"max_kw": null, "sockets": [], "capacity": 0}, "source": "osm", "tags": {"fee": "", "access": "", "opening_hours": "", "authentication": "", "brand": "", "network": "", "operator": ""}, "amenities": {"fee": false}}, {"id": "osm-11865649916", "name": "EV Charging Station", "type": "charging_station", "lat": 35.775146, "lon": 115.058012, "operator": "Unknown", "address": {"street": "", "housenumber": "", "postcode": "", "city": "", "state": "", "country": ""}, "power": {"max_kw": null, "sockets": [], "capacity": 0}, "source": "osm", "tags": {"fee": "", "access": "", "opening_hours": "", "authentication": "", "brand": "", "network": "", "operator": ""}, "amenities": {"fee": false}}, {"id": "osm-11911505432", "name": "保养厂充电站", "type": "charging_station", "lat": 35.794721, "lon": 115.054259, "operator": "Unknown", "address": {"street": "", "housenumber": "", "postcode": "", "city": "", "state": "", "country": ""}, "power": {"max_kw": null, "sockets": [], "capacity": 0}, "source": "osm", "tags": {"fee": "", "access": "", "opening_hours": "", "authentication": "", "brand": "中国铁塔", "network": "", "operator": ""}, "amenities": {"fee": false}}, {"id": "osm-11911505433", "name": "EV Charging Station", "type": "charging_station", "lat": 35.765103, "lon": 115.034806, "operator": "Unknown", "address": {"street": "", "housenumber": "", "postcode": "", "city": "", "state": "", "country": ""}, "power": {"max_kw": null, "sockets": [], "capacity": 0}, "source": "osm", "tags": {"fee": "yes", "access": "", "opening_hours": "", "authentication": "", "brand": "", "network": "", "operator": ""}, "amenities": {"fee": true}}, {"id": "osm-11911505434", "name": "石化易电", "type": "charging_station", "lat": 35.790041, "lon": 115.062212, "operator": "Unknown", "address": {"street": "", "housenumber": "", "postcode": "", "city": "", "state": "", "country": ""}, "power": {"max_kw": null, "sockets": [], "capacity": 0}, "source": "osm", "tags": {"fee": "", "access": "", "opening_hours": "", "authentication": "", "brand": "石化易电", "network": "", "operator": ""}, "amenities": {"fee": false}}, {"id": "osm-13096654167", "name": "国家电网", "type": "charging_station", "lat": 35.455438, "lon": 115.921173, "operator": "State Grid Corp.", "address": {"street": "", "housenumber": "", "postcode": "", "city": "", "state": "", "country": ""}, "power": {"max_kw": null, "sockets": [], "capacity": 0}, "source": "osm", "tags": {"fee": "", "access": "", "opening_hours": "", "authentication": "", "brand": "国家电网", "network": "", "operator": "国家电网有限公司"}, "amenities": {"fee": false}}, {"id": "osm-13096654176", "name": "山东郓州电力有限公司唐庙充电站", "type": "charging_station", "lat": 35.415355, "lon": 115.830183, "operator": "Unknown", "address": {"street": "", "housenumber": "", "postcode": "", "city": "", "state": "", "country": ""}, "power": {"max_kw": null, "sockets": [], "capacity": 0}, "source": "osm", "tags": {"fee": "", "access": "", "opening_hours": "", "authentication": "", "brand": "", "network": "", "operator": ""}, "amenities": {"fee": false}}, {"id": "osm-13096654177", "name": "菏泽交通集团有限公司菏泽汽车总站充电站", "type": "charging_station", "lat": 35.247821, "lon": 115.461553, "operator": "Unknown", "address": {"street": "", "housenumber": "", "postcode": "", "city": "", "state": "", "country": ""}, "power": {"max_kw": null, "sockets": [], "capacity": 0}, "source": "osm", "tags": {"fee": "", "access": "", "opening_hours": "", "authentication": "", "brand": "", "network": "", "operator": ""}, "amenities": {"fee": false}}, {"id": "osm-13098561677", "name": "石化易电", "type": "charging_station", "lat": 35.237266, "lon": 115.458742, "operator": "Unknown", "address": {"street": "", "housenumber": "", "postcode": "", "city": "", "state": "", "country": ""}, "power": {"max_kw": null, "sockets": [], "capacity": 0}, "source": "osm", "tags": {"fee": "", "access": "", "opening_hours": "", "authentication": "", "brand": "石化易电", "network": "", "operator": ""}, "amenities": {"fee": false}}, {"id": "osm-13272632738", "name": "特来电", "type": "charging_station", "lat": 35.764165, "lon": 115.10569, "operator": "Unknown", "address": {"street": "", "housenumber": "", "postcode": "", "city": "", "state": "", "country": ""}, "power": {"max_kw": null, "sockets": [], "capacity": 0}, "source": "osm", "tags": {"fee": "", "access": "", "opening_hours": "", "authentication": "", "brand": "特来电", "network": "", "operator": ""}, "amenities": {"fee": false}}, {"id": "osm-13277805447", "name": "濮阳市开发区及时送达蔬菜店（个体工商户）充电站", "type": "charging_station", "lat": 35.723499, "lon": 115.056425, "operator": "Unknown", "address": {"street": "", "housenumber": "", "postcode": "", "city": "", "state": "", "country": ""}, "power": {"max_kw": null, "sockets": [], "capacity": 0}, "source": "osm", "tags": {"fee": "", "access": "", "opening_hours": "", "authentication": "", "brand": "", "network": "", "operator": ""}, "amenities": {"fee": false}}, {"id": "osm-13619261092", "name": "山东通盛新能源产业有限公司充电站", "type": "charging_station", "lat": 35.24422, "lon": 115.452299, "operator": "Unknown", "address": {"street": "", "housenumber": "", "postcode": "", "city": "", "state": "", "country": ""}, "power": {"max_kw": null, "sockets": [], "capacity": 0}, "source": "osm", "tags": {"fee": "", "access": "", "opening_hours": "", "authentication": "", "brand": "", "network": "", "operator": ""}, "amenities": {"fee": false}}], "count": 21}