{"tile": "poi-tile-48--65", "lat": 48, "lon": -65, "stations": [{"id": "osm-4425549328", "name": "BRCC - CDSMML - Gaspé", "type": "charging_station", "lat": 48.827216, "lon": -64.478262, "operator": "Circuit Électrique", "address": {"street": "", "housenumber": "", "postcode": "", "city": "", "state": "", "country": ""}, "power": {"max_kw": null, "sockets": [], "capacity": 0}, "source": "osm", "tags": {"fee": "", "access": "", "opening_hours": "", "authentication": "", "brand": "", "network": "", "operator": "Le Circuit Électrique"}, "amenities": {"fee": false}}, {"id": "osm-4952811282", "name": "Circuit électrique", "type": "charging_station", "lat": 48.349232, "lon": -64.68338, "operator": "Circuit Électrique", "address": {"street": "", "housenumber": "", "postcode": "", "city": "", "state": "", "country": ""}, "power": {"max_kw": null, "sockets": [], "capacity": 0}, "source": "osm", "tags": {"fee": "", "access": "", "opening_hours": "", "authentication": "", "brand": "Circuit électrique", "network": "", "operator": "Circuit électrique"}, "amenities": {"fee": false}}, {"id": "osm-4952826618", "name": "BRCC - CDSMML - Percé", "type": "charging_station", "lat": 48.524088, "lon": -64.21054, "operator": "Circuit Électrique", "address": {"street": "", "housenumber": "", "postcode": "", "city": "", "state": "", "country": ""}, "power": {"max_kw": null, "sockets": [], "capacity": 0}, "source": "osm", "tags": {"fee": "", "access": "", "opening_hours": "", "authentication": "", "brand": "", "network": "", "operator": "Le Circuit Électrique"}, "amenities": {"fee": false}}, {"id": "osm-5370548231", "name": "Borne de recharge", "type": "charging_station", "lat": 48.521165, "lon": -64.217445, "operator": "Géoparc de Percé", "address": {"street": "", "housenumber": "", "postcode": "", "city": "", "state": "", "country": ""}, "power": {"max_kw": null, "sockets": [], "capacity": 0}, "source": "osm", "tags": {"fee": "", "access": "", "opening_hours": "", "authentication": "", "brand": "", "network": "", "operator": "Géoparc de Percé"}, "amenities": {"fee": false}}, {"id": "osm-5745481107", "name": "Borne de recharge électrique", "type": "charging_station", "lat": 48.471371, "lon": -64.308444, "operator": "Unknown", "address": {"street": "", "housenumber": "", "postcode": "", "city": "", "state": "", "country": ""}, "power": {"max_kw": null, "sockets": [], "capacity": 0}, "source": "osm", "tags": {"fee": "", "access": "", "opening_hours": "", "authentication": "", "brand": "", "network": "", "operator": ""}, "amenities": {"fee": false}}, {"id": "osm-5818054512", "name": "EV Charging Station", "type": "charging_station", "lat": 48.352122, "lon": -64.672641, "operator": "Unknown", "address": {"street": "", "housenumber": "", "postcode": "", "city": "", "state": "", "country": ""}, "power": {"max_kw": null, "sockets": [], "capacity": 0}, "source": "osm", "tags": {"fee": "", "access": "", "opening_hours": "", "authentication": "", "brand": "", "network": "", "operator": ""}, "amenities": {"fee": false}}, {"id": "osm-6721886997", "name": "Borne de recharge", "type": "charging_station", "lat": 48.521884, "lon": -64.21457, "operator": "Unknown", "address": {"street": "", "housenumber": "", "postcode": "", "city": "", "state": "", "country": ""}, "power": {"max_kw": null, "sockets": [], "capacity": 0}, "source": "osm", "tags": {"fee": "", "access": "", "opening_hours": "", "authentication": "", "brand": "", "network": "", "operator": ""}, "amenities": {"fee": false}}, {"id": "osm-6973273679", "name": "Borne de recharge", "type": "charging_station", "lat": 48.828477, "lon": -64.486822, "operator": "Unknown", "address": {"street": "", "housenumber": "", "postcode": "", "city": "", "state": "", "country": ""}, "power": {"max_kw": null, "sockets": [], "capacity": 0}, "source": "osm", "tags": {"fee": "", "access": "", "opening_hours": "", "authentication": "", "brand": "", "network": "", "operator": ""}, "amenities": {"fee": false}}, {"id": "osm-6984062581", "name": "Borne de recharge", "type": "charging_station", "lat": 48.350513, "lon": -64.675019, "operator": "Unknown", "address": {"street": "", "housenumber": "", "postcode": "", "city": "", "state": "", "country": ""}, "power": {"max_kw": null, "sockets": [], "capacity": 0}, "source": "osm", "tags": {"fee": "", "access": "", "opening_hours": "", "authentication": "", "brand": "", "network": "", "operator": ""}, "amenities": {"fee": false}}, {"id": "osm-9870327291", "name": "Borne de recharge électrique", "type": "charging_station", "lat": 48.427159, "lon": -64.328181, "operator": "Marché Nicolas", "address": {"street": "", "housenumber": "", "postcode": "", "city": "", "state": "", "country": ""}, "power": {"max_kw": null, "sockets": [], "capacity": 0}, "source": "osm", "tags": {"fee": "", "access": "", "opening_hours": "", "authentication": "", "brand": "", "network": "", "operator": "Marché Nicolas"}, "amenities": {"fee": false}}, {"id": "osm-10117294418", "name": "RechargÉco", "type": "charging_station", "lat": 48.824104, "lon": -64.472607, "operator": "RechargÉco", "address": {"street": "", "housenumber": "", "postcode": "", "city": "", "state": "", "country": ""}, "power": {"max_kw": null, "sockets": [], "capacity": 0}, "source": "osm", "tags": {"fee": "", "access": "", "opening_hours": "", "authentication": "", "brand": "", "network": "", "operator": "RechargÉco"}, "amenities": {"fee": false}}, {"id": "osm-11208964230", "name": "EV Charging Station", "type": "charging_station", "lat": 48.51939, "lon": -64.215925, "operator": "Unknown", "address": {"street": "", "housenumber": "", "postcode": "", "city": "", "state": "", "country": ""}, "power": {"max_kw": null, "sockets": [], "capacity": 0}, "source": "osm", "tags": {"fee": "", "access": "", "opening_hours": "", "authentication": "", "brand": "", "network": "", "operator": ""}, "amenities": {"fee": false}}], "count": 12}