{"tile": "poi-tile--29--54", "lat": -29, "lon": -54, "stations": [{"id": "osm-4556211697", "name": "Posto Paizão", "type": "charging_station", "lat": -28.635625, "lon": -53.610052, "operator": "Shell Recharge", "address": {"street": "", "housenumber": "", "postcode": "", "city": "", "state": "", "country": ""}, "power": {"max_kw": null, "sockets": [], "capacity": 0}, "source": "osm", "tags": {"fee": "", "access": "", "opening_hours": "", "authentication": "", "brand": "", "network": "", "operator": "Posto Shell"}, "amenities": {"fee": false}}, {"id": "osm-4556251493", "name": "Posto Ipiranga", "type": "charging_station", "lat": -28.653178, "lon": -53.589254, "operator": "Posto Ipiranga", "address": {"street": "", "housenumber": "", "postcode": "", "city": "", "state": "", "country": ""}, "power": {"max_kw": null, "sockets": [], "capacity": 0}, "source": "osm", "tags": {"fee": "", "access": "", "opening_hours": "", "authentication": "", "brand": "", "network": "", "operator": "Posto Ipiranga"}, "amenities": {"fee": false}}, {"id": "osm-4557762766", "name": "Estrelar Auto Elétrica", "type": "charging_station", "lat": -28.646832, "lon": -53.585248, "operator": "Unknown", "address": {"street": "", "housenumber": "", "postcode": "", "city": "", "state": "", "country": ""}, "power": {"max_kw": null, "sockets": [], "capacity": 0}, "source": "osm", "tags": {"fee": "", "access": "", "opening_hours": "", "authentication": "", "brand": "", "network": "", "operator": ""}, "amenities": {"fee": false}}, {"id": "osm-4557938491", "name": "PROTTI", "type": "charging_station", "lat": -28.646167, "lon": -53.596282, "operator": "Unknown", "address": {"street": "", "housenumber": "", "postcode": "", "city": "", "state": "", "country": ""}, "power": {"max_kw": null, "sockets": [], "capacity": 0}, "source": "osm", "tags": {"fee": "", "access": "", "opening_hours": "", "authentication": "", "brand": "", "network": "", "operator": ""}, "amenities": {"fee": false}}, {"id": "osm-4790962823", "name": "EV Charging Station", "type": "charging_station", "lat": -28.173459, "lon": -53.473225, "operator": "Unknown", "address": {"street": "", "housenumber": "", "postcode": "", "city": "", "state": "", "country": ""}, "power": {"max_kw": null, "sockets": [], "capacity": 0}, "source": "osm", "tags": {"fee": "", "access": "", "opening_hours": "", "authentication": "", "brand": "", "network": "", "operator": ""}, "amenities": {"fee": false}}], "count": 5}