{"tile": "poi-tile-12-77", "lat": 12, "lon": 77, "stations": [{"id": "osm-9202909866", "name": "Ather Charging Grid", "type": "charging_station", "lat": 12.975668, "lon": 77.641309, "operator": "Ather Energy", "address": {"street": "", "housenumber": "", "postcode": "", "city": "", "state": "", "country": ""}, "power": {"max_kw": null, "sockets": [], "capacity": 0}, "source": "osm", "tags": {"fee": "", "access": "yes", "opening_hours": "", "authentication": "", "brand": "", "network": "", "operator": "Ather Energy"}, "amenities": {"fee": false}}, {"id": "osm-9796873472", "name": "BESCOM", "type": "charging_station", "lat": 12.994737, "lon": 77.699301, "operator": "BESCOM", "address": {"street": "", "housenumber": "", "postcode": "", "city": "", "state": "", "country": ""}, "power": {"max_kw": null, "sockets": [], "capacity": 0}, "source": "osm", "tags": {"fee": "", "access": "", "opening_hours": "", "authentication": "", "brand": "", "network": "", "operator": "BESCOM"}, "amenities": {"fee": false}}, {"id": "osm-9811396097", "name": "EV Charging Station", "type": "charging_station", "lat": 12.977583, "lon": 77.638989, "operator": "Unknown", "address": {"street": "", "housenumber": "", "postcode": "", "city": "", "state": "", "country": ""}, "power": {"max_kw": null, "sockets": [], "capacity": 0}, "source": "osm", "tags": {"fee": "", "access": "yes", "opening_hours": "", "authentication": "", "brand": "", "network": "", "operator": ""}, "amenities": {"fee": false}}, {"id": "osm-9917415768", "name": "EV Charging Station", "type": "charging_station", "lat": 12.973397, "lon": 77.635756, "operator": "Unknown", "address": {"street": "", "housenumber": "", "postcode": "", "city": "", "state": "", "country": ""}, "power": {"max_kw": null, "sockets": [], "capacity": 0}, "source": "osm", "tags": {"fee": "", "access": "", "opening_hours": "", "authentication": "", "brand": "", "network": "", "operator": ""}, "amenities": {"fee": false}}, {"id": "osm-10177662896", "name": "EV Charging Station", "type": "charging_station", "lat": 12.913773, "lon": 77.644173, "operator": "Unknown", "address": {"street": "", "housenumber": "", "postcode": "", "city": "", "state": "", "country": ""}, "power": {"max_kw": null, "sockets": [], "capacity": 0}, "source": "osm", "tags": {"fee": "", "access": "", "opening_hours": "", "authentication": "", "brand": "", "network": "", "operator": ""}, "amenities": {"fee": false}}, {"id": "osm-10293872605", "name": "inGO", "type": "charging_station", "lat": 12.971278, "lon": 77.607883, "operator": "Unknown", "address": {"street": "", "housenumber": "", "postcode": "", "city": "", "state": "", "country": ""}, "power": {"max_kw": null, "sockets": [], "capacity": 0}, "source": "osm", "tags": {"fee": "", "access": "", "opening_hours": "", "authentication": "", "brand": "", "network": "", "operator": ""}, "amenities": {"fee": false}}, {"id": "osm-10294506356", "name": "Yulu", "type": "charging_station", "lat": 12.976482, "lon": 77.62683, "operator": "Unknown", "address": {"street": "", "housenumber": "", "postcode": "", "city": "", "state": "", "country": ""}, "power": {"max_kw": null, "sockets": [], "capacity": 0}, "source": "osm", "tags": {"fee": "", "access": "", "opening_hours": "", "authentication": "", "brand": "Yulu", "network": "", "operator": ""}, "amenities": {"fee": false}}, {"id": "osm-10763275239", "name": "Magenta ChargeGrid Charging Station", "type": "charging_station", "lat": 12.915463, "lon": 77.615891, "operator": "Magenta Group", "address": {"street": "", "housenumber": "", "postcode": "", "city": "", "state": "", "country": ""}, "power": {"max_kw": null, "sockets": [], "capacity": 0}, "source": "osm", "tags": {"fee": "yes", "access": "", "opening_hours": "", "authentication": "", "brand": "", "network": "", "operator": "Magenta Group"}, "amenities": {"fee": true}}, {"id": "osm-11178123519", "name": "Ather", "type": "charging_station", "lat": 12.957683, "lon": 77.568447, "operator": "Ather", "address": {"street": "", "housenumber": "", "postcode": "", "city": "", "state": "", "country": ""}, "power": {"max_kw": null, "sockets": [], "capacity": 0}, "source": "osm", "tags": {"fee": "", "access": "", "opening_hours": "", "authentication": "", "brand": "Ather", "network": "", "operator": "Ather"}, "amenities": {"fee": false}}, {"id": "osm-11214889013", "name": "Pulse", "type": "charging_station", "lat": 12.980548, "lon": 77.597889, "operator": "Unknown", "address": {"street": "", "housenumber": "", "postcode": "", "city": "", "state": "", "country": ""}, "power": {"max_kw": null, "sockets": [], "capacity": 0}, "source": "osm", "tags": {"fee": "", "access": "", "opening_hours": "", "authentication": "", "brand": "", "network": "", "operator": ""}, "amenities": {"fee": false}}, {"id": "osm-11283405698", "name": "Ola Hypercharger", "type": "charging_station", "lat": 12.932217, "lon": 77.614272, "operator": "Unknown", "address": {"street": "", "housenumber": "", "postcode": "", "city": "", "state": "", "country": ""}, "power": {"max_kw": null, "sockets": [], "capacity": 0}, "source": "osm", "tags": {"fee": "", "access": "", "opening_hours": "", "authentication": "", "brand": "", "network": "", "operator": ""}, "amenities": {"fee": false}}, {"id": "osm-11286212936", "name": "BESCOM", "type": "charging_station", "lat": 12.916907, "lon": 77.610271, "operator": "BESCOM", "address": {"street": "", "housenumber": "", "postcode": "", "city": "", "state": "", "country": ""}, "power": {"max_kw": null, "sockets": [], "capacity": 0}, "source": "osm", "tags": {"fee": "", "access": "yes", "opening_hours": "", "authentication": "", "brand": "BESCOM", "network": "", "operator": "BESCOM"}, "amenities": {"fee": false}}, {"id": "osm-11297781805", "name": "Hero Vida", "type": "charging_station", "lat": 12.971011, "lon": 77.597788, "operator": "Unknown", "address": {"street": "", "housenumber": "", "postcode": "", "city": "", "state": "", "country": ""}, "power": {"max_kw": null, "sockets": [], "capacity": 0}, "source": "osm", "tags": {"fee": "", "access": "", "opening_hours": "", "authentication": "", "brand": "Hero Vida", "network": "", "operator": ""}, "amenities": {"fee": false}}, {"id": "osm-11408768738", "name": "EV Charging Station", "type": "charging_station", "lat": 12.973667, "lon": 77.583085, "operator": "Unknown", "address": {"street": "", "housenumber": "", "postcode": "", "city": "", "state": "", "country": ""}, "power": {"max_kw": null, "sockets": [], "capacity": 0}, "source": "osm", "tags": {"fee": "", "access": "", "opening_hours": "", "authentication": "", "brand": "", "network": "", "operator": ""}, "amenities": {"fee": false}}, {"id": "osm-11463172582", "name": "Honda e:swap", "type": "charging_station", "lat": 12.930195, "lon": 77.61483, "operator": "Unknown", "address": {"street": "", "housenumber": "", "postcode": "", "city": "", "state": "", "country": ""}, "power": {"max_kw": null, "sockets": [], "capacity": 0}, "source": "osm", "tags": {"fee": "", "access": "", "opening_hours": "", "authentication": "", "brand": "Honda e:swap", "network": "", "operator": ""}, "amenities": {"fee": false}}, {"id": "osm-11542817290", "name": "EV Charging Station", "type": "charging_station", "lat": 12.936268, "lon": 77.607688, "operator": "Unknown", "address": {"street": "", "housenumber": "", "postcode": "", "city": "", "state": "", "country": ""}, "power": {"max_kw": null, "sockets": [], "capacity": 0}, "source": "osm", "tags": {"fee": "yes", "access": "", "opening_hours": "", "authentication": "", "brand": "", "network": "", "operator": ""}, "amenities": {"fee": true}}, {"id": "osm-11927677057", "name": "Ola Hyper Charger", "type": "charging_station", "lat": 12.933775, "lon": 77.623669, "operator": "ChargePoint", "address": {"street": "", "housenumber": "", "postcode": "", "city": "", "state": "", "country": ""}, "power": {"max_kw": null, "sockets": [], "capacity": 0}, "source": "osm", "tags": {"fee": "no", "access": "yes", "opening_hours": "", "authentication": "", "brand": "ChargePoint", "network": "", "operator": "ChargePoint"}, "amenities": {"fee": false}}, {"id": "osm-11927677058", "name": "Battery Swap", "type": "charging_station", "lat": 12.928584, "lon": 77.62419, "operator": "ChargePoint", "address": {"street": "", "housenumber": "", "postcode": "", "city": "", "state": "", "country": ""}, "power": {"max_kw": null, "sockets": [], "capacity": 0}, "source": "osm", "tags": {"fee": "", "access": "yes", "opening_hours": "", "authentication": "", "brand": "ChargePoint", "network": "", "operator": "ChargePoint"}, "amenities": {"fee": false}}, {"id": "osm-11936564076", "name": "Ather Charging Station", "type": "charging_station", "lat": 12.931145, "lon": 77.623846, "operator": "ChargePoint", "address": {"street": "", "housenumber": "", "postcode": "", "city": "", "state": "", "country": ""}, "power": {"max_kw": null, "sockets": [], "capacity": 0}, "source": "osm", "tags": {"fee": "no", "access": "yes", "opening_hours": "", "authentication": "", "brand": "ChargePoint", "network": "", "operator": "ChargePoint"}, "amenities": {"fee": false}}, {"id": "osm-12002046035", "name": "EV Charging Station", "type": "charging_station", "lat": 12.977855, "lon": 77.581276, "operator": "Unknown", "address": {"street": "", "housenumber": "", "postcode": "", "city": "", "state": "", "country": ""}, "power": {"max_kw": null, "sockets": [], "capacity": 0}, "source": "osm", "tags": {"fee": "yes", "access": "", "opening_hours": "", "authentication": "", "brand": "", "network": "", "operator": ""}, "amenities": {"fee": true}}, {"id": "osm-12078138004", "name": "EV Charging Station", "type": "charging_station", "lat": 12.981076, "lon": 77.59668, "operator": "Unknown", "address": {"street": "", "housenumber": "", "postcode": "", "city": "", "state": "", "country": ""}, "power": {"max_kw": null, "sockets": [], "capacity": 0}, "source": "osm", "tags": {"fee": "", "access": "", "opening_hours": "", "authentication": "", "brand": "", "network": "", "operator": ""}, "amenities": {"fee": false}}, {"id": "osm-12101733050", "name": "Ola Hypercharger", "type": "charging_station", "lat": 12.965406, "lon": 77.600247, "operator": "Unknown", "address": {"street": "", "housenumber": "", "postcode": "", "city": "", "state": "", "country": ""}, "power": {"max_kw": null, "sockets": [], "capacity": 0}, "source": "osm", "tags": {"fee": "", "access": "yes", "opening_hours": "", "authentication": "", "brand": "Ola Hypercharger", "network": "", "operator": ""}, "amenities": {"fee": false}}, {"id": "osm-12125802596", "name": "Honda e:swap", "type": "charging_station", "lat": 12.978105, "lon": 77.63891, "operator": "Honda e:swap", "address": {"street": "", "housenumber": "", "postcode": "", "city": "", "state": "", "country": ""}, "power": {"max_kw": null, "sockets": [], "capacity": 0}, "source": "osm", "tags": {"fee": "yes", "access": "", "opening_hours": "", "authentication": "", "brand": "", "network": "", "operator": "Honda e:swap"}, "amenities": {"fee": true}}, {"id": "osm-12169023077", "name": "Battery Swapping Station", "type": "charging_station", "lat": 12.889427, "lon": 77.556365, "operator": "Unknown", "address": {"street": "", "housenumber": "", "postcode": "", "city": "", "state": "", "country": ""}, "power": {"max_kw": null, "sockets": [], "capacity": 0}, "source": "osm", "tags": {"fee": "", "access": "", "opening_hours": "24/7", "authentication": "", "brand": "", "network": "", "operator": ""}, "amenities": {"fee": false}}, {"id": "osm-12492566397", "name": "Honda e:swap", "type": "charging_station", "lat": 12.938354, "lon": 77.580216, "operator": "Honda e:swap", "address": {"street": "", "housenumber": "", "postcode": "", "city": "", "state": "", "country": ""}, "power": {"max_kw": null, "sockets": [], "capacity": 0}, "source": "osm", "tags": {"fee": "yes", "access": "", "opening_hours": "", "authentication": "", "brand": "", "network": "", "operator": "Honda e:swap"}, "amenities": {"fee": true}}, {"id": "osm-12492581619", "name": "Honda e:swap", "type": "charging_station", "lat": 12.921708, "lon": 77.580505, "operator": "Honda e:swap", "address": {"street": "", "housenumber": "", "postcode": "", "city": "", "state": "", "country": ""}, "power": {"max_kw": null, "sockets": [], "capacity": 0}, "source": "osm", "tags": {"fee": "yes", "access": "", "opening_hours": "", "authentication": "", "brand": "", "network": "", "operator": "Honda e:swap"}, "amenities": {"fee": true}}, {"id": "osm-12534145133", "name": "Honda e:swap", "type": "charging_station", "lat": 12.993427, "lon": 77.704314, "operator": "Unknown", "address": {"street": "", "housenumber": "", "postcode": "", "city": "", "state": "", "country": ""}, "power": {"max_kw": null, "sockets": [], "capacity": 0}, "source": "osm", "tags": {"fee": "", "access": "", "opening_hours": "", "authentication": "", "brand": "", "network": "", "operator": ""}, "amenities": {"fee": false}}, {"id": "osm-12788139581", "name": "Honda e:swap", "type": "charging_station", "lat": 12.986184, "lon": 77.615689, "operator": "Honda e:swap", "address": {"street": "", "housenumber": "", "postcode": "", "city": "", "state": "", "country": ""}, "power": {"max_kw": null, "sockets": [], "capacity": 0}, "source": "osm", "tags": {"fee": "yes", "access": "", "opening_hours": "", "authentication": "", "brand": "", "network": "", "operator": "Honda e:swap"}, "amenities": {"fee": true}}, {"id": "osm-12982255490", "name": "êpump", "type": "charging_station", "lat": 12.942117, "lon": 77.747197, "operator": "êpump", "address": {"street": "", "housenumber": "", "postcode": "", "city": "", "state": "", "country": ""}, "power": {"max_kw": null, "sockets": [], "capacity": 0}, "source": "osm", "tags": {"fee": "", "access": "", "opening_hours": "", "authentication": "", "brand": "", "network": "", "operator": "êpump"}, "amenities": {"fee": false}}, {"id": "osm-13625197611", "name": "EV Charging Station", "type": "charging_station", "lat": 12.765215, "lon": 77.330355, "operator": "Unknown", "address": {"street": "", "housenumber": "", "postcode": "", "city": "", "state": "", "country": ""}, "power": {"max_kw": null, "sockets": [], "capacity": 0}, "source": "osm", "tags": {"fee": "", "access": "", "opening_hours": "", "authentication": "", "brand": "", "network": "", "operator": ""}, "amenities": {"fee": false}}], "count": 30}