{"tile": "poi-tile-34-139", "lat": 34, "lon": 139, "stations": [{"id": "osm-2119390423", "name": "EV Charging Station", "type": "charging_station", "lat": 34.738249, "lon": 139.380129, "operator": "Unknown", "address": {"street": "", "housenumber": "", "postcode": "", "city": "", "state": "", "country": ""}, "power": {"max_kw": null, "sockets": [], "capacity": 0}, "source": "osm", "tags": {"fee": "", "access": "", "opening_hours": "", "authentication": "", "brand": "", "network": "", "operator": ""}, "amenities": {"fee": false}}, {"id": "osm-9459867551", "name": "EV Charging Station", "type": "charging_station", "lat": 34.986611, "lon": 139.094047, "operator": "Unknown", "address": {"street": "", "housenumber": "", "postcode": "", "city": "", "state": "", "country": ""}, "power": {"max_kw": null, "sockets": [], "capacity": 0}, "source": "osm", "tags": {"fee": "", "access": "", "opening_hours": "", "authentication": "", "brand": "", "network": "", "operator": ""}, "amenities": {"fee": false}}, {"id": "osm-11224339456", "name": "EneCange", "type": "charging_station", "lat": 34.969374, "lon": 139.097291, "operator": "Unknown", "address": {"street": "", "housenumber": "", "postcode": "", "city": "", "state": "", "country": ""}, "power": {"max_kw": null, "sockets": [], "capacity": 0}, "source": "osm", "tags": {"fee": "", "access": "yes", "opening_hours": "", "authentication": "", "brand": "EneCange", "network": "", "operator": ""}, "amenities": {"fee": false}}, {"id": "osm-11274423104", "name": "EV Charging Station", "type": "charging_station", "lat": 34.911808, "lon": 139.129323, "operator": "Unknown", "address": {"street": "", "housenumber": "", "postcode": "", "city": "", "state": "", "country": ""}, "power": {"max_kw": null, "sockets": [], "capacity": 0}, "source": "osm", "tags": {"fee": "", "access": "", "opening_hours": "", "authentication": "", "brand": "", "network": "", "operator": ""}, "amenities": {"fee": false}}, {"id": "osm-11946312802", "name": "E-Mobility Power", "type": "charging_station", "lat": 34.910197, "lon": 139.120519, "operator": "E-Mobility Power", "address": {"street": "", "housenumber": "", "postcode": "", "city": "", "state": "", "country": ""}, "power": {"max_kw": null, "sockets": [], "capacity": 0}, "source": "osm", "tags": {"fee": "no", "access": "", "opening_hours": "", "authentication": "", "brand": "", "network": "", "operator": "E-Mobility Power"}, "amenities": {"fee": false}}, {"id": "osm-12386030619", "name": "PLUGO", "type": "charging_station", "lat": 34.948706, "lon": 139.118697, "operator": "Unknown", "address": {"street": "", "housenumber": "", "postcode": "", "city": "", "state": "", "country": ""}, "power": {"max_kw": null, "sockets": [], "capacity": 0}, "source": "osm", "tags": {"fee": "yes", "access": "", "opening_hours": "", "authentication": "", "brand": "PLUGO", "network": "", "operator": ""}, "amenities": {"fee": true}}, {"id": "osm-12688862613", "name": "TerraStation", "type": "charging_station", "lat": 34.965203, "lon": 139.093526, "operator": "Unknown", "address": {"street": "", "housenumber": "", "postcode": "", "city": "", "state": "", "country": ""}, "power": {"max_kw": null, "sockets": [], "capacity": 0}, "source": "osm", "tags": {"fee": "", "access": "", "opening_hours": "", "authentication": "", "brand": "TerraStation", "network": "", "operator": ""}, "amenities": {"fee": false}}], "count": 7}