{"tile": "poi-tile-24-115", "lat": 24, "lon": 115, "stations": [{"id": "osm-9869484771", "name": "EV Charging Station", "type": "charging_station", "lat": 24.129171, "lon": 115.764611, "operator": "Unknown", "address": {"street": "", "housenumber": "", "postcode": "", "city": "", "state": "", "country": ""}, "power": {"max_kw": null, "sockets": [], "capacity": 0}, "source": "osm", "tags": {"fee": "", "access": "", "opening_hours": "", "authentication": "", "brand": "", "network": "", "operator": ""}, "amenities": {"fee": false}}, {"id": "osm-13074280430", "name": "广东交通集团", "type": "charging_station", "lat": 24.237656, "lon": 115.64126, "operator": "广东交通集团", "address": {"street": "", "housenumber": "", "postcode": "", "city": "", "state": "", "country": ""}, "power": {"max_kw": null, "sockets": [], "capacity": 0}, "source": "osm", "tags": {"fee": "", "access": "", "opening_hours": "", "authentication": "", "brand": "", "network": "", "operator": "广东交通集团"}, "amenities": {"fee": false}}, {"id": "osm-13234434035", "name": "国家电网", "type": "charging_station", "lat": 24.932645, "lon": 115.758508, "operator": "State Grid Corp.", "address": {"street": "", "housenumber": "", "postcode": "", "city": "", "state": "", "country": ""}, "power": {"max_kw": null, "sockets": [], "capacity": 0}, "source": "osm", "tags": {"fee": "", "access": "", "opening_hours": "", "authentication": "", "brand": "国家电网", "network": "", "operator": "国家电网有限公司"}, "amenities": {"fee": false}}, {"id": "osm-13234434036", "name": "国家电网", "type": "charging_station", "lat": 24.934649, "lon": 115.755499, "operator": "State Grid Corp.", "address": {"street": "", "housenumber": "", "postcode": "", "city": "", "state": "", "country": ""}, "power": {"max_kw": null, "sockets": [], "capacity": 0}, "source": "osm", "tags": {"fee": "", "access": "", "opening_hours": "", "authentication": "", "brand": "国家电网", "network": "", "operator": "国家电网有限公司"}, "amenities": {"fee": false}}, {"id": "osm-13347388486", "name": "广东天路汽车充电站", "type": "charging_station", "lat": 24.28753, "lon": 115.426492, "operator": "Unknown", "address": {"street": "", "housenumber": "", "postcode": "", "city": "", "state": "", "country": ""}, "power": {"max_kw": null, "sockets": [], "capacity": 0}, "source": "osm", "tags": {"fee": "", "access": "", "opening_hours": "", "authentication": "", "brand": "", "network": "", "operator": ""}, "amenities": {"fee": false}}, {"id": "osm-13347388487", "name": "广东交通集团汽车充电站", "type": "charging_station", "lat": 24.285991, "lon": 115.426954, "operator": "Unknown", "address": {"street": "", "housenumber": "", "postcode": "", "city": "", "state": "", "country": ""}, "power": {"max_kw": null, "sockets": [], "capacity": 0}, "source": "osm", "tags": {"fee": "", "access": "", "opening_hours": "", "authentication": "", "brand": "", "network": "", "operator": ""}, "amenities": {"fee": false}}, {"id": "osm-13349848876", "name": "星星充电充电站", "type": "charging_station", "lat": 24.78084, "lon": 115.639853, "operator": "Unknown", "address": {"street": "", "housenumber": "", "postcode": "", "city": "", "state": "", "country": ""}, "power": {"max_kw": null, "sockets": [], "capacity": 0}, "source": "osm", "tags": {"fee": "", "access": "", "opening_hours": "", "authentication": "", "brand": "星星充电充电站", "network": "", "operator": ""}, "amenities": {"fee": false}}, {"id": "osm-13349848877", "name": "EV Charging Station", "type": "charging_station", "lat": 24.780721, "lon": 115.635554, "operator": "Unknown", "address": {"street": "", "housenumber": "", "postcode": "", "city": "", "state": "", "country": ""}, "power": {"max_kw": null, "sockets": [], "capacity": 0}, "source": "osm", "tags": {"fee": "", "access": "", "opening_hours": "", "authentication": "", "brand": "", "network": "", "operator": ""}, "amenities": {"fee": false}}], "count": 8}