{"tile": "poi-tile-49--3", "lat": 49, "lon": -3, "stations": [{"id": "osm-5921575445", "name": "Ladestation Plug-N-Go", "type": "charging_station", "lat": 49.458355, "lon": -2.532162, "operator": "Plug-N-Go", "address": {"country": "FR"}, "power": {"capacity": 3}, "source": "osm", "tags": {"access": "", "fee": "", "brand": "", "network": "", "opening_hours": ""}}, {"id": "osm-8988105210", "name": "Jersey Electricity Company - BP ChargeMaster", "type": "charging_station", "lat": 49.196263, "lon": -2.031055, "operator": "Jersey Electricity Company", "address": {"country": "FR"}, "power": {"max_kw": 50.0, "sockets": [{"type": "Type 2", "kw": 43.0, "count": 1}, {"type": "CCS (Type 2)", "kw": 50.0, "count": 1}, {"type": "CHAdeMO", "kw": 50.0, "count": 1}], "capacity": 2}, "source": "osm", "tags": {"access": "customers", "fee": "yes", "brand": "BP ChargeMaster", "network": "", "opening_hours": "24/7"}, "amenities": {"opening_hours": "24/7", "payment_methods": ["Contactless", "Credit Cards", "Debit Cards"], "authentication": "none", "fee": true, "parking_fee": false}}, {"id": "osm-9152750599", "name": "Charge & Park", "type": "charging_station", "lat": 49.180709, "lon": -2.102149, "operator": "Jersey Electricity Company", "address": {"country": "FR"}, "power": {"max_kw": 22, "sockets": [{"type": "Type 2", "kw": 22, "count": 2}], "capacity": 2}, "source": "osm", "tags": {"access": "customers", "fee": "yes", "brand": "", "network": "Charge Your Car", "opening_hours": "24/7"}, "amenities": {"opening_hours": "24/7", "payment_methods": ["App"], "authentication": "app", "fee": true, "parking_fee": false}}, {"id": "osm-9211148340", "name": "Charge & Park", "type": "charging_station", "lat": 49.186036, "lon": -2.102896, "operator": "Jersey Electricity Company", "address": {"country": "FR"}, "power": {"max_kw": 22, "sockets": [{"type": "Type 2", "kw": 22, "count": 2}], "capacity": 2}, "source": "osm", "tags": {"access": "customers", "fee": "yes", "brand": "", "network": "Charge Your Car", "opening_hours": "24/7"}, "amenities": {"opening_hours": "24/7", "payment_methods": ["App"], "authentication": "app", "fee": true, "parking_fee": false}}, {"id": "osm-9985111906", "name": "Ladestation Charge Your Car", "type": "charging_station", "lat": 49.185744, "lon": -2.198653, "operator": "Charge Your Car", "address": {"country": "FR"}, "power": {"capacity": 2}, "source": "osm", "tags": {"access": "yes", "fee": "", "brand": "", "network": "", "opening_hours": ""}}, {"id": "osm-13183919301", "name": "Ladeeinrichtung", "type": "charging_station", "lat": 49.202444, "lon": -2.201435, "operator": "Unknown", "address": {"country": "FR"}, "source": "osm", "tags": {"access": "", "fee": "", "brand": "", "network": "", "opening_hours": ""}}, {"id": "osm-1088021434", "name": "Ladestation evolve", "type": "charging_station", "lat": 49.191037, "lon": -2.200536, "operator": "evolve", "address": {"country": "FR"}, "power": {"capacity": 1}, "source": "osm", "tags": {"access": "yes", "fee": "yes", "brand": "", "network": "", "opening_hours": ""}, "amenities": {"fee": true}}], "count": 7}