{
  "format": "routesync-poi-v1.5.0",
  "tile": {
    "lat": 44,
    "lon": 24,
    "bounds": {
      "south": 44,
      "north": 45,
      "west": 24,
      "east": 25
    }
  },
  "generated": "2026-04-16T14:52:46Z",
  "count": 23,
  "pois": [
    {
      "id": "osm-8977307974",
      "name": "Pitești Supercharger",
      "type": "charging_station",
      "lat": 44.823811,
      "lon": 24.909505,
      "operator": "Tesla",
      "address": {},
      "power": {
        "max_kw": 250.0,
        "sockets": [
          {
            "type": "CCS (Type 2)",
            "kw": 250.0,
            "count": 6
          }
        ],
        "capacity": 6
      },
      "source": "osm",
      "tags": {
        "access": "customers",
        "fee": "yes",
        "brand": "Tesla Supercharger",
        "network": "",
        "opening_hours": "24/7"
      },
      "amenities": {
        "opening_hours": "24/7",
        "fee": true
      }
    },
    {
      "id": "osm-9240777481",
      "name": "Ladestation Enel",
      "type": "charging_station",
      "lat": 44.12162,
      "lon": 24.984245,
      "operator": "Enel",
      "address": {},
      "source": "osm",
      "tags": {
        "access": "",
        "fee": "",
        "brand": "",
        "network": "",
        "opening_hours": ""
      }
    },
    {
      "id": "osm-9946556885",
      "name": "Ladestation ELMotion",
      "type": "charging_station",
      "lat": 44.945143,
      "lon": 24.70067,
      "operator": "Unbekannt",
      "address": {},
      "power": {
        "capacity": 1
      },
      "source": "osm",
      "tags": {
        "access": "yes",
        "fee": "",
        "brand": "ELMotion",
        "network": "",
        "opening_hours": ""
      }
    },
    {
      "id": "osm-10971833905",
      "name": "Statie incarcare autovehicule electrice",
      "type": "charging_station",
      "lat": 44.431387,
      "lon": 24.365682,
      "operator": "Unbekannt",
      "address": {
        "street": "Strada Victoriei"
      },
      "source": "osm",
      "tags": {
        "access": "",
        "fee": "",
        "brand": "",
        "network": "",
        "opening_hours": "24/7"
      },
      "amenities": {
        "opening_hours": "24/7"
      }
    },
    {
      "id": "osm-10971834005",
      "name": "Statie incarcare autovehicule electrice",
      "type": "charging_station",
      "lat": 44.431571,
      "lon": 24.360399,
      "operator": "Altex",
      "address": {},
      "power": {
        "capacity": 2
      },
      "source": "osm",
      "tags": {
        "access": "",
        "fee": "no",
        "brand": "Polyfazer",
        "network": "Axionet",
        "opening_hours": "24/7"
      },
      "amenities": {
        "opening_hours": "24/7",
        "fee": false
      }
    },
    {
      "id": "osm-11083409798",
      "name": "Ladestation Kaufland",
      "type": "charging_station",
      "lat": 44.431556,
      "lon": 24.358566,
      "operator": "Kaufland",
      "address": {},
      "source": "osm",
      "tags": {
        "access": "",
        "fee": "",
        "brand": "",
        "network": "",
        "opening_hours": ""
      }
    },
    {
      "id": "osm-10971833906",
      "name": "Statie incarcare autovehicule electrice",
      "type": "charging_station",
      "lat": 44.427642,
      "lon": 24.382534,
      "operator": "Unbekannt",
      "address": {
        "street": "Bulevardul Alexandru Ioan Cuza"
      },
      "source": "osm",
      "tags": {
        "access": "",
        "fee": "",
        "brand": "",
        "network": "",
        "opening_hours": "24/7"
      },
      "amenities": {
        "opening_hours": "24/7"
      }
    },
    {
      "id": "osm-10971834105",
      "name": "Statie incarcare autovehicule electrice",
      "type": "charging_station",
      "lat": 44.64515,
      "lon": 24.268695,
      "operator": "Annabella",
      "address": {
        "street": "Strada Tudor Vladimirescu"
      },
      "source": "osm",
      "tags": {
        "access": "",
        "fee": "",
        "brand": "",
        "network": "",
        "opening_hours": "24/7"
      },
      "amenities": {
        "opening_hours": "24/7"
      }
    },
    {
      "id": "osm-11029743727",
      "name": "Ladeeinrichtung",
      "type": "charging_station",
      "lat": 44.435848,
      "lon": 24.3793,
      "operator": "Unbekannt",
      "address": {},
      "source": "osm",
      "tags": {
        "access": "",
        "fee": "",
        "brand": "",
        "network": "",
        "opening_hours": ""
      }
    },
    {
      "id": "osm-11032485478",
      "name": "Stație încărcat Lidl",
      "type": "charging_station",
      "lat": 44.422093,
      "lon": 24.385597,
      "operator": "Lidl",
      "address": {},
      "power": {
        "capacity": 2
      },
      "source": "osm",
      "tags": {
        "access": "yes",
        "fee": "no",
        "brand": "Lidl",
        "network": "Lidl",
        "opening_hours": ""
      },
      "amenities": {
        "fee": false
      }
    },
    {
      "id": "osm-11141424730",
      "name": "Ladeeinrichtung",
      "type": "charging_station",
      "lat": 44.421297,
      "lon": 24.384508,
      "operator": "Unbekannt",
      "address": {},
      "source": "osm",
      "tags": {
        "access": "",
        "fee": "",
        "brand": "",
        "network": "",
        "opening_hours": ""
      }
    },
    {
      "id": "osm-12118686196",
      "name": "Ladeeinrichtung",
      "type": "charging_station",
      "lat": 44.422226,
      "lon": 24.383237,
      "operator": "Unbekannt",
      "address": {},
      "source": "osm",
      "tags": {
        "access": "",
        "fee": "",
        "brand": "",
        "network": "",
        "opening_hours": ""
      }
    },
    {
      "id": "osm-13230082443",
      "name": "ELDrive - ELDrive",
      "type": "charging_station",
      "lat": 44.42283,
      "lon": 24.385898,
      "operator": "ELDrive",
      "address": {},
      "source": "osm",
      "tags": {
        "access": "",
        "fee": "",
        "brand": "ELDrive",
        "network": "",
        "opening_hours": ""
      }
    },
    {
      "id": "osm-11241040632",
      "name": "Ladeeinrichtung",
      "type": "charging_station",
      "lat": 44.878513,
      "lon": 24.842048,
      "operator": "Unbekannt",
      "address": {},
      "source": "osm",
      "tags": {
        "access": "",
        "fee": "",
        "brand": "",
        "network": "",
        "opening_hours": ""
      }
    },
    {
      "id": "osm-11375946436",
      "name": "Ladeeinrichtung",
      "type": "charging_station",
      "lat": 44.428681,
      "lon": 24.36455,
      "operator": "Unbekannt",
      "address": {},
      "source": "osm",
      "tags": {
        "access": "",
        "fee": "",
        "brand": "",
        "network": "",
        "opening_hours": ""
      }
    },
    {
      "id": "osm-12259272806",
      "name": "Ladeeinrichtung",
      "type": "charging_station",
      "lat": 44.425887,
      "lon": 24.37611,
      "operator": "Unbekannt",
      "address": {},
      "power": {
        "capacity": 2
      },
      "source": "osm",
      "tags": {
        "access": "",
        "fee": "yes",
        "brand": "",
        "network": "",
        "opening_hours": ""
      },
      "amenities": {
        "fee": true
      }
    },
    {
      "id": "osm-12605234056",
      "name": "Ladeeinrichtung",
      "type": "charging_station",
      "lat": 44.884944,
      "lon": 24.834117,
      "operator": "Unbekannt",
      "address": {},
      "source": "osm",
      "tags": {
        "access": "",
        "fee": "",
        "brand": "",
        "network": "",
        "opening_hours": ""
      }
    },
    {
      "id": "osm-12770216083",
      "name": "Stație Încărcare autovehicule electrice",
      "type": "charging_station",
      "lat": 44.243936,
      "lon": 24.280747,
      "operator": "Unbekannt",
      "address": {},
      "power": {
        "capacity": 2
      },
      "source": "osm",
      "tags": {
        "access": "",
        "fee": "no",
        "brand": "",
        "network": "",
        "opening_hours": "24/7"
      },
      "amenities": {
        "opening_hours": "24/7",
        "fee": false
      }
    },
    {
      "id": "osm-13031511562",
      "name": "Ladeeinrichtung",
      "type": "charging_station",
      "lat": 44.866569,
      "lon": 24.884688,
      "operator": "Unbekannt",
      "address": {},
      "power": {
        "capacity": 3
      },
      "source": "osm",
      "tags": {
        "access": "",
        "fee": "yes",
        "brand": "",
        "network": "",
        "opening_hours": "24/7"
      },
      "amenities": {
        "opening_hours": "24/7",
        "fee": true
      }
    },
    {
      "id": "osm-13272367165",
      "name": "Ladeeinrichtung",
      "type": "charging_station",
      "lat": 44.345397,
      "lon": 24.859236,
      "operator": "Unbekannt",
      "address": {},
      "source": "osm",
      "tags": {
        "access": "",
        "fee": "",
        "brand": "",
        "network": "",
        "opening_hours": ""
      }
    },
    {
      "id": "osm-13337765514",
      "name": "Ladestation ElectricUP",
      "type": "charging_station",
      "lat": 44.836599,
      "lon": 24.88298,
      "operator": "Unbekannt",
      "address": {},
      "source": "osm",
      "tags": {
        "access": "",
        "fee": "",
        "brand": "ElectricUP",
        "network": "",
        "opening_hours": ""
      }
    },
    {
      "id": "osm-13354865306",
      "name": "Eldrive - Supernova Pitești",
      "type": "charging_station",
      "lat": 44.818091,
      "lon": 24.93978,
      "operator": "Unbekannt",
      "address": {},
      "power": {
        "max_kw": 600.0,
        "sockets": [
          {
            "type": "Type 2",
            "kw": 22.0,
            "count": 1
          },
          {
            "type": "CCS (Type 2)",
            "kw": 600.0,
            "count": 13
          }
        ],
        "capacity": 14
      },
      "source": "osm",
      "tags": {
        "access": "yes",
        "fee": "yes",
        "brand": "Eldrive",
        "network": "",
        "opening_hours": "24/7"
      },
      "amenities": {
        "opening_hours": "24/7",
        "payment_methods": [
          "App"
        ],
        "authentication": "app",
        "fee": true,
        "parking_fee": false
      }
    },
    {
      "id": "osm-13359894855",
      "name": "Ladeeinrichtung",
      "type": "charging_station",
      "lat": 44.88163,
      "lon": 24.835963,
      "operator": "Unbekannt",
      "address": {},
      "power": {
        "capacity": 150
      },
      "source": "osm",
      "tags": {
        "access": "",
        "fee": "",
        "brand": "",
        "network": "",
        "opening_hours": ""
      }
    }
  ]
}