{"tile": "poi-tile--35--59", "lat": -35, "lon": -59, "stations": [{"id": "osm-4571251290", "name": "La Colonial", "type": "charging_station", "lat": -34.636405, "lon": -58.680546, "operator": "La Colonial", "address": {"street": "", "housenumber": "", "postcode": "", "city": "", "state": "", "country": ""}, "power": {"max_kw": null, "sockets": [], "capacity": 0}, "source": "osm", "tags": {"fee": "", "access": "", "opening_hours": "", "authentication": "", "brand": "", "network": "", "operator": "La Colonial"}, "amenities": {"fee": false}}, {"id": "osm-5015324983", "name": "ACA Palermo", "type": "charging_station", "lat": -34.57442, "lon": -58.42148, "operator": "ACA Palermo", "address": {"street": "", "housenumber": "", "postcode": "", "city": "", "state": "", "country": ""}, "power": {"max_kw": null, "sockets": [{"type": "Chademo", "kw": null, "count": 2}, {"type": "Type2 Combo", "kw": null, "count": 2}], "capacity": 4}, "source": "osm", "tags": {"fee": "", "access": "", "opening_hours": "", "authentication": "", "brand": "", "network": "", "operator": "ACA Palermo"}, "amenities": {"fee": false}}, {"id": "osm-5494390122", "name": "Wall-Mart", "type": "charging_station", "lat": -34.556859, "lon": -58.851258, "operator": "Wall-Mart", "address": {"street": "", "housenumber": "", "postcode": "", "city": "", "state": "", "country": ""}, "power": {"max_kw": null, "sockets": [], "capacity": 0}, "source": "osm", "tags": {"fee": "", "access": "", "opening_hours": "", "authentication": "", "brand": "", "network": "", "operator": "Wall-Mart"}, "amenities": {"fee": false}}, {"id": "osm-9221498905", "name": "YPF", "type": "charging_station", "lat": -34.685312, "lon": -58.304271, "operator": "YPF OPESSA AUBASA SUR", "address": {"street": "", "housenumber": "", "postcode": "", "city": "", "state": "", "country": ""}, "power": {"max_kw": null, "sockets": [], "capacity": 0}, "source": "osm", "tags": {"fee": "yes", "access": "", "opening_hours": "", "authentication": "", "brand": "", "network": "", "operator": "YPF OPESSA AUBASA SUR"}, "amenities": {"fee": true}}, {"id": "osm-9221537974", "name": "YPF", "type": "charging_station", "lat": -34.685328, "lon": -58.3042, "operator": "YPF", "address": {"street": "", "housenumber": "", "postcode": "", "city": "", "state": "", "country": ""}, "power": {"max_kw": null, "sockets": [], "capacity": 0}, "source": "osm", "tags": {"fee": "yes", "access": "", "opening_hours": "", "authentication": "", "brand": "", "network": "", "operator": "YPF"}, "amenities": {"fee": true}}, {"id": "osm-9221537975", "name": "YPF", "type": "charging_station", "lat": -34.68458, "lon": -58.304604, "operator": "YPF", "address": {"street": "", "housenumber": "", "postcode": "", "city": "", "state": "", "country": ""}, "power": {"max_kw": null, "sockets": [], "capacity": 0}, "source": "osm", "tags": {"fee": "yes", "access": "", "opening_hours": "", "authentication": "", "brand": "", "network": "", "operator": "YPF"}, "amenities": {"fee": true}}, {"id": "osm-9221573763", "name": "Restaurant Kansas", "type": "charging_station", "lat": -34.475581, "lon": -58.499782, "operator": "Unknown", "address": {"street": "", "housenumber": "", "postcode": "", "city": "", "state": "", "country": ""}, "power": {"max_kw": null, "sockets": [], "capacity": 0}, "source": "osm", "tags": {"fee": "", "access": "", "opening_hours": "", "authentication": "", "brand": "", "network": "", "operator": ""}, "amenities": {"fee": false}}, {"id": "osm-9221640745", "name": "ENEL", "type": "charging_station", "lat": -34.578474, "lon": -58.40635, "operator": "Axion", "address": {"street": "", "housenumber": "", "postcode": "", "city": "", "state": "", "country": ""}, "power": {"max_kw": null, "sockets": [], "capacity": 0}, "source": "osm", "tags": {"fee": "", "access": "", "opening_hours": "", "authentication": "", "brand": "", "network": "", "operator": "Axion"}, "amenities": {"fee": false}}, {"id": "osm-9995929735", "name": "EV Charging Station", "type": "charging_station", "lat": -34.812203, "lon": -58.540522, "operator": "Unknown", "address": {"street": "", "housenumber": "", "postcode": "", "city": "", "state": "", "country": ""}, "power": {"max_kw": null, "sockets": [], "capacity": 0}, "source": "osm", "tags": {"fee": "", "access": "", "opening_hours": "", "authentication": "", "brand": "", "network": "", "operator": ""}, "amenities": {"fee": false}}, {"id": "osm-11808842870", "name": "Sircharge D", "type": "charging_station", "lat": -34.58045, "lon": -58.398299, "operator": "Audi", "address": {"street": "", "housenumber": "", "postcode": "", "city": "", "state": "", "country": ""}, "power": {"max_kw": null, "sockets": [], "capacity": 0}, "source": "osm", "tags": {"fee": "yes", "access": "", "opening_hours": "24/7", "authentication": "", "brand": "", "network": "", "operator": "Audi"}, "amenities": {"fee": true}}, {"id": "osm-11867592947", "name": "ChargeboxNet", "type": "charging_station", "lat": -34.58657, "lon": -58.519332, "operator": "Unknown", "address": {"street": "", "housenumber": "", "postcode": "", "city": "", "state": "", "country": ""}, "power": {"max_kw": null, "sockets": [{"type": "Type2", "kw": null, "count": 2}], "capacity": 2}, "source": "osm", "tags": {"fee": "", "access": "customers", "opening_hours": "", "authentication": "", "brand": "ChargeboxNet", "network": "", "operator": ""}, "amenities": {"fee": false}}, {"id": "osm-12247524907", "name": "Scame", "type": "charging_station", "lat": -34.429577, "lon": -58.681925, "operator": "Unknown", "address": {"street": "", "housenumber": "", "postcode": "", "city": "", "state": "", "country": ""}, "power": {"max_kw": null, "sockets": [], "capacity": 0}, "source": "osm", "tags": {"fee": "", "access": "customers", "opening_hours": "", "authentication": "", "brand": "Scame", "network": "", "operator": ""}, "amenities": {"fee": false}}, {"id": "osm-12249199370", "name": "Shell Recharge Solutions", "type": "charging_station", "lat": -34.573509, "lon": -58.506461, "operator": "Shell Recharge", "address": {"street": "", "housenumber": "", "postcode": "", "city": "", "state": "", "country": ""}, "power": {"max_kw": null, "sockets": [], "capacity": 0}, "source": "osm", "tags": {"fee": "", "access": "customers", "opening_hours": "", "authentication": "", "brand": "", "network": "", "operator": "Shell Recharge Solutions"}, "amenities": {"fee": false}}, {"id": "osm-12387173876", "name": "YPF Punto Eléctrico", "type": "charging_station", "lat": -34.681081, "lon": -58.450607, "operator": "Unknown", "address": {"street": "", "housenumber": "", "postcode": "", "city": "", "state": "", "country": ""}, "power": {"max_kw": null, "sockets": [], "capacity": 0}, "source": "osm", "tags": {"fee": "", "access": "yes", "opening_hours": "", "authentication": "", "brand": "", "network": "", "operator": ""}, "amenities": {"fee": false}}, {"id": "osm-12583082441", "name": "Shell Recharge", "type": "charging_station", "lat": -34.399288, "lon": -58.646623, "operator": "Unknown", "address": {"street": "", "housenumber": "", "postcode": "", "city": "", "state": "", "country": ""}, "power": {"max_kw": null, "sockets": [{"type": "Type2", "kw": null, "count": 2}], "capacity": 2}, "source": "osm", "tags": {"fee": "", "access": "", "opening_hours": "", "authentication": "", "brand": "", "network": "", "operator": ""}, "amenities": {"fee": false}}, {"id": "osm-12674278400", "name": "Punto Eléctrico", "type": "charging_station", "lat": -34.551355, "lon": -58.437647, "operator": "Unknown", "address": {"street": "", "housenumber": "", "postcode": "", "city": "", "state": "", "country": ""}, "power": {"max_kw": null, "sockets": [], "capacity": 0}, "source": "osm", "tags": {"fee": "", "access": "", "opening_hours": "", "authentication": "", "brand": "YPF", "network": "", "operator": ""}, "amenities": {"fee": false}}, {"id": "osm-12709235025", "name": "Punto de Carga", "type": "charging_station", "lat": -34.622323, "lon": -58.402824, "operator": "Electro Universo", "address": {"street": "", "housenumber": "", "postcode": "", "city": "", "state": "", "country": ""}, "power": {"max_kw": null, "sockets": [], "capacity": 0}, "source": "osm", "tags": {"fee": "", "access": "", "opening_hours": "", "authentication": "", "brand": "", "network": "", "operator": "Electro Universo"}, "amenities": {"fee": false}}], "count": 17}