{"tile": "poi-tile-10-76", "lat": 10, "lon": 76, "stations": [{"id": "osm-4434163189", "name": "Elanthikkara", "type": "charging_station", "lat": 10.179696, "lon": 76.267321, "operator": "KSEB", "address": {"street": "", "housenumber": "", "postcode": "", "city": "", "state": "", "country": ""}, "power": {"max_kw": null, "sockets": [], "capacity": 0}, "source": "osm", "tags": {"fee": "", "access": "", "opening_hours": "", "authentication": "", "brand": "", "network": "", "operator": "KSEB"}, "amenities": {"fee": false}}, {"id": "osm-7123744187", "name": "EV Charging Station", "type": "charging_station", "lat": 10.648832, "lon": 76.071061, "operator": "Unknown", "address": {"street": "", "housenumber": "", "postcode": "", "city": "", "state": "", "country": ""}, "power": {"max_kw": null, "sockets": [], "capacity": 0}, "source": "osm", "tags": {"fee": "", "access": "", "opening_hours": "", "authentication": "", "brand": "", "network": "", "operator": ""}, "amenities": {"fee": false}}, {"id": "osm-8919511936", "name": "Zeon Charging Navakkarai", "type": "charging_station", "lat": 10.855973, "lon": 76.862448, "operator": "Zeon", "address": {"street": "", "housenumber": "", "postcode": "", "city": "", "state": "", "country": ""}, "power": {"max_kw": null, "sockets": [], "capacity": 0}, "source": "osm", "tags": {"fee": "yes", "access": "yes", "opening_hours": "", "authentication": "", "brand": "", "network": "", "operator": "Zeon"}, "amenities": {"fee": true}}, {"id": "osm-9524427359", "name": "TATA Charging Station", "type": "charging_station", "lat": 10.077302, "lon": 76.337644, "operator": "TATA", "address": {"street": "", "housenumber": "", "postcode": "", "city": "", "state": "", "country": ""}, "power": {"max_kw": null, "sockets": [], "capacity": 0}, "source": "osm", "tags": {"fee": "", "access": "yes", "opening_hours": "", "authentication": "", "brand": "", "network": "", "operator": "TATA"}, "amenities": {"fee": false}}, {"id": "osm-10617217605", "name": "Tata EZ power Charging station", "type": "charging_station", "lat": 10.24563, "lon": 76.369849, "operator": "Tata Power", "address": {"street": "Salem - Kochi - Kanyakumari Highway", "housenumber": "", "postcode": "", "city": "", "state": "", "country": ""}, "power": {"max_kw": null, "sockets": [], "capacity": 0}, "source": "osm", "tags": {"fee": "", "access": "", "opening_hours": "24/7", "authentication": "", "brand": "", "network": "", "operator": "Tata Power"}, "amenities": {"fee": false}}, {"id": "osm-11111611044", "name": "KSEB Charging Station", "type": "charging_station", "lat": 10.597268, "lon": 76.487229, "operator": "Unknown", "address": {"street": "", "housenumber": "", "postcode": "", "city": "", "state": "", "country": ""}, "power": {"max_kw": null, "sockets": [], "capacity": 0}, "source": "osm", "tags": {"fee": "", "access": "", "opening_hours": "", "authentication": "", "brand": "KSEB Charging Station", "network": "", "operator": ""}, "amenities": {"fee": false}}, {"id": "osm-11116285790", "name": "ATHER Fast Charger", "type": "charging_station", "lat": 10.002999, "lon": 76.361699, "operator": "Unknown", "address": {"street": "", "housenumber": "", "postcode": "", "city": "", "state": "", "country": ""}, "power": {"max_kw": null, "sockets": [], "capacity": 0}, "source": "osm", "tags": {"fee": "", "access": "", "opening_hours": "", "authentication": "", "brand": "", "network": "", "operator": ""}, "amenities": {"fee": false}}, {"id": "osm-11157574366", "name": "EV Super charging station", "type": "charging_station", "lat": 10.774037, "lon": 76.698222, "operator": "Unknown", "address": {"street": "", "housenumber": "", "postcode": "", "city": "", "state": "", "country": ""}, "power": {"max_kw": null, "sockets": [], "capacity": 0}, "source": "osm", "tags": {"fee": "", "access": "", "opening_hours": "", "authentication": "", "brand": "", "network": "", "operator": ""}, "amenities": {"fee": false}}, {"id": "osm-11288409893", "name": "KSEB", "type": "charging_station", "lat": 10.331491, "lon": 76.215273, "operator": "Unknown", "address": {"street": "", "housenumber": "", "postcode": "", "city": "", "state": "", "country": ""}, "power": {"max_kw": null, "sockets": [], "capacity": 0}, "source": "osm", "tags": {"fee": "", "access": "", "opening_hours": "", "authentication": "", "brand": "", "network": "", "operator": ""}, "amenities": {"fee": false}}, {"id": "osm-11574632419", "name": "Ola Hypercharger", "type": "charging_station", "lat": 10.535217, "lon": 76.215611, "operator": "Unknown", "address": {"street": "", "housenumber": "", "postcode": "", "city": "", "state": "", "country": ""}, "power": {"max_kw": null, "sockets": [], "capacity": 0}, "source": "osm", "tags": {"fee": "", "access": "yes", "opening_hours": "", "authentication": "", "brand": "OLA Electric", "network": "", "operator": ""}, "amenities": {"fee": false}}, {"id": "osm-11964375344", "name": "GOEC", "type": "charging_station", "lat": 10.116666, "lon": 76.445759, "operator": "Unknown", "address": {"street": "", "housenumber": "", "postcode": "", "city": "", "state": "", "country": ""}, "power": {"max_kw": null, "sockets": [], "capacity": 0}, "source": "osm", "tags": {"fee": "", "access": "", "opening_hours": "", "authentication": "", "brand": "GOEC", "network": "", "operator": ""}, "amenities": {"fee": false}}, {"id": "osm-11964400670", "name": "EV Charging Station", "type": "charging_station", "lat": 10.099556, "lon": 76.347416, "operator": "Unknown", "address": {"street": "", "housenumber": "", "postcode": "", "city": "", "state": "", "country": ""}, "power": {"max_kw": null, "sockets": [], "capacity": 0}, "source": "osm", "tags": {"fee": "", "access": "", "opening_hours": "", "authentication": "", "brand": "", "network": "", "operator": ""}, "amenities": {"fee": false}}, {"id": "osm-11964404840", "name": "Exicom", "type": "charging_station", "lat": 10.072278, "lon": 76.333776, "operator": "Unknown", "address": {"street": "", "housenumber": "", "postcode": "", "city": "", "state": "", "country": ""}, "power": {"max_kw": null, "sockets": [], "capacity": 0}, "source": "osm", "tags": {"fee": "", "access": "", "opening_hours": "", "authentication": "", "brand": "Exicom", "network": "", "operator": ""}, "amenities": {"fee": false}}, {"id": "osm-11964404990", "name": "EVOK Charging Station", "type": "charging_station", "lat": 10.081985, "lon": 76.339999, "operator": "Unknown", "address": {"street": "", "housenumber": "", "postcode": "", "city": "", "state": "", "country": ""}, "power": {"max_kw": null, "sockets": [], "capacity": 0}, "source": "osm", "tags": {"fee": "", "access": "", "opening_hours": "", "authentication": "", "brand": "", "network": "", "operator": ""}, "amenities": {"fee": false}}, {"id": "osm-11964409805", "name": "KSEB", "type": "charging_station", "lat": 10.088934, "lon": 76.42305, "operator": "Unknown", "address": {"street": "", "housenumber": "", "postcode": "", "city": "", "state": "", "country": ""}, "power": {"max_kw": null, "sockets": [], "capacity": 0}, "source": "osm", "tags": {"fee": "", "access": "", "opening_hours": "", "authentication": "", "brand": "KSEB", "network": "", "operator": ""}, "amenities": {"fee": false}}, {"id": "osm-11964604757", "name": "KSEB", "type": "charging_station", "lat": 10.033478, "lon": 76.221057, "operator": "Unknown", "address": {"street": "", "housenumber": "", "postcode": "", "city": "", "state": "", "country": ""}, "power": {"max_kw": null, "sockets": [], "capacity": 0}, "source": "osm", "tags": {"fee": "", "access": "", "opening_hours": "", "authentication": "", "brand": "KSEB", "network": "", "operator": ""}, "amenities": {"fee": false}}, {"id": "osm-11964630608", "name": "KSEB", "type": "charging_station", "lat": 10.07582, "lon": 76.270491, "operator": "Unknown", "address": {"street": "", "housenumber": "", "postcode": "", "city": "", "state": "", "country": ""}, "power": {"max_kw": null, "sockets": [], "capacity": 0}, "source": "osm", "tags": {"fee": "", "access": "", "opening_hours": "", "authentication": "", "brand": "KSEB", "network": "", "operator": ""}, "amenities": {"fee": false}}, {"id": "osm-11970079921", "name": "EV Charging Station", "type": "charging_station", "lat": 10.018704, "lon": 76.313113, "operator": "Unknown", "address": {"street": "", "housenumber": "", "postcode": "", "city": "", "state": "", "country": ""}, "power": {"max_kw": null, "sockets": [], "capacity": 0}, "source": "osm", "tags": {"fee": "", "access": "", "opening_hours": "", "authentication": "", "brand": "", "network": "", "operator": ""}, "amenities": {"fee": false}}, {"id": "osm-11970092378", "name": "EV Charging Station", "type": "charging_station", "lat": 10.062893, "lon": 76.321141, "operator": "Unknown", "address": {"street": "", "housenumber": "", "postcode": "", "city": "", "state": "", "country": ""}, "power": {"max_kw": null, "sockets": [], "capacity": 0}, "source": "osm", "tags": {"fee": "", "access": "", "opening_hours": "", "authentication": "", "brand": "", "network": "", "operator": ""}, "amenities": {"fee": false}}, {"id": "osm-11970092379", "name": "EV Charging Station", "type": "charging_station", "lat": 10.034821, "lon": 76.323089, "operator": "Unknown", "address": {"street": "", "housenumber": "", "postcode": "", "city": "", "state": "", "country": ""}, "power": {"max_kw": null, "sockets": [], "capacity": 0}, "source": "osm", "tags": {"fee": "", "access": "", "opening_hours": "", "authentication": "", "brand": "", "network": "", "operator": ""}, "amenities": {"fee": false}}, {"id": "osm-11970095292", "name": "EVOK", "type": "charging_station", "lat": 10.046329, "lon": 76.339378, "operator": "Unknown", "address": {"street": "", "housenumber": "", "postcode": "", "city": "", "state": "", "country": ""}, "power": {"max_kw": null, "sockets": [], "capacity": 0}, "source": "osm", "tags": {"fee": "", "access": "", "opening_hours": "", "authentication": "", "brand": "EVOK", "network": "", "operator": ""}, "amenities": {"fee": false}}, {"id": "osm-11970103073", "name": "EV Charging Station", "type": "charging_station", "lat": 10.01533, "lon": 76.306108, "operator": "Unknown", "address": {"street": "", "housenumber": "", "postcode": "", "city": "", "state": "", "country": ""}, "power": {"max_kw": null, "sockets": [], "capacity": 0}, "source": "osm", "tags": {"fee": "", "access": "", "opening_hours": "", "authentication": "", "brand": "", "network": "", "operator": ""}, "amenities": {"fee": false}}, {"id": "osm-11970662648", "name": "EV Charging Station", "type": "charging_station", "lat": 10.020881, "lon": 76.344716, "operator": "Unknown", "address": {"street": "", "housenumber": "", "postcode": "", "city": "", "state": "", "country": ""}, "power": {"max_kw": null, "sockets": [], "capacity": 0}, "source": "osm", "tags": {"fee": "", "access": "", "opening_hours": "", "authentication": "", "brand": "", "network": "", "operator": ""}, "amenities": {"fee": false}}, {"id": "osm-11970671706", "name": "EV Charging Station", "type": "charging_station", "lat": 10.032415, "lon": 76.336454, "operator": "Unknown", "address": {"street": "", "housenumber": "", "postcode": "", "city": "", "state": "", "country": ""}, "power": {"max_kw": null, "sockets": [], "capacity": 0}, "source": "osm", "tags": {"fee": "", "access": "", "opening_hours": "", "authentication": "", "brand": "", "network": "", "operator": ""}, "amenities": {"fee": false}}, {"id": "osm-11970686660", "name": "EV Charging Station", "type": "charging_station", "lat": 10.023153, "lon": 76.341238, "operator": "Unknown", "address": {"street": "", "housenumber": "", "postcode": "", "city": "", "state": "", "country": ""}, "power": {"max_kw": null, "sockets": [], "capacity": 0}, "source": "osm", "tags": {"fee": "", "access": "", "opening_hours": "", "authentication": "", "brand": "", "network": "", "operator": ""}, "amenities": {"fee": false}}, {"id": "osm-11970703533", "name": "EV Charging Station", "type": "charging_station", "lat": 10.040476, "lon": 76.33858, "operator": "Unknown", "address": {"street": "", "housenumber": "", "postcode": "", "city": "", "state": "", "country": ""}, "power": {"max_kw": null, "sockets": [], "capacity": 0}, "source": "osm", "tags": {"fee": "", "access": "", "opening_hours": "", "authentication": "", "brand": "", "network": "", "operator": ""}, "amenities": {"fee": false}}, {"id": "osm-11970703598", "name": "EV Charging Station", "type": "charging_station", "lat": 10.017359, "lon": 76.348896, "operator": "Unknown", "address": {"street": "", "housenumber": "", "postcode": "", "city": "", "state": "", "country": ""}, "power": {"max_kw": null, "sockets": [], "capacity": 0}, "source": "osm", "tags": {"fee": "", "access": "", "opening_hours": "", "authentication": "", "brand": "", "network": "", "operator": ""}, "amenities": {"fee": false}}, {"id": "osm-11970725379", "name": "EV Charging Station", "type": "charging_station", "lat": 10.0541, "lon": 76.32683, "operator": "Unknown", "address": {"street": "", "housenumber": "", "postcode": "", "city": "", "state": "", "country": ""}, "power": {"max_kw": null, "sockets": [], "capacity": 0}, "source": "osm", "tags": {"fee": "", "access": "", "opening_hours": "", "authentication": "", "brand": "", "network": "", "operator": ""}, "amenities": {"fee": false}}, {"id": "osm-11970726776", "name": "EV Charging Station", "type": "charging_station", "lat": 10.021577, "lon": 76.334191, "operator": "Unknown", "address": {"street": "", "housenumber": "", "postcode": "", "city": "", "state": "", "country": ""}, "power": {"max_kw": null, "sockets": [], "capacity": 0}, "source": "osm", "tags": {"fee": "", "access": "", "opening_hours": "", "authentication": "", "brand": "", "network": "", "operator": ""}, "amenities": {"fee": false}}, {"id": "osm-12197027554", "name": "Ather Grid Charging Stationed", "type": "charging_station", "lat": 10.770255, "lon": 76.637782, "operator": "Ather", "address": {"street": "", "housenumber": "", "postcode": "", "city": "", "state": "", "country": ""}, "power": {"max_kw": null, "sockets": [], "capacity": 0}, "source": "osm", "tags": {"fee": "", "access": "private", "opening_hours": "", "authentication": "", "brand": "Ather Grid Charging Stationed", "network": "", "operator": "Ather"}, "amenities": {"fee": false}}, {"id": "osm-12327155403", "name": "EV Point", "type": "charging_station", "lat": 10.380689, "lon": 76.297593, "operator": "Unknown", "address": {"street": "", "housenumber": "", "postcode": "", "city": "", "state": "", "country": ""}, "power": {"max_kw": null, "sockets": [], "capacity": 0}, "source": "osm", "tags": {"fee": "", "access": "", "opening_hours": "", "authentication": "", "brand": "", "network": "", "operator": ""}, "amenities": {"fee": false}}, {"id": "osm-12791449753", "name": "Pulse", "type": "charging_station", "lat": 10.773663, "lon": 76.664726, "operator": "BP Pulse", "address": {"street": "", "housenumber": "", "postcode": "", "city": "", "state": "", "country": ""}, "power": {"max_kw": null, "sockets": [], "capacity": 0}, "source": "osm", "tags": {"fee": "yes", "access": "", "opening_hours": "", "authentication": "", "brand": "Pulse", "network": "", "operator": "Jio Bp"}, "amenities": {"fee": true}}, {"id": "osm-12828589994", "name": "Esygo", "type": "charging_station", "lat": 10.771951, "lon": 76.65726, "operator": "Unknown", "address": {"street": "", "housenumber": "", "postcode": "", "city": "", "state": "", "country": ""}, "power": {"max_kw": null, "sockets": [], "capacity": 0}, "source": "osm", "tags": {"fee": "", "access": "", "opening_hours": "", "authentication": "", "brand": "Esygo", "network": "", "operator": ""}, "amenities": {"fee": false}}, {"id": "osm-13040660047", "name": "EV Charging Station", "type": "charging_station", "lat": 10.522057, "lon": 76.227662, "operator": "Unknown", "address": {"street": "", "housenumber": "", "postcode": "", "city": "", "state": "", "country": ""}, "power": {"max_kw": null, "sockets": [], "capacity": 0}, "source": "osm", "tags": {"fee": "yes", "access": "", "opening_hours": "", "authentication": "", "brand": "", "network": "", "operator": ""}, "amenities": {"fee": true}}, {"id": "osm-13249124236", "name": "Exiom Charging Station", "type": "charging_station", "lat": 10.773112, "lon": 76.279474, "operator": "Exiom Charging Station", "address": {"street": "", "housenumber": "", "postcode": "", "city": "", "state": "", "country": ""}, "power": {"max_kw": null, "sockets": [], "capacity": 0}, "source": "osm", "tags": {"fee": "", "access": "", "opening_hours": "", "authentication": "", "brand": "", "network": "", "operator": "Exiom Charging Station"}, "amenities": {"fee": false}}, {"id": "osm-13556517113", "name": "EZYGO", "type": "charging_station", "lat": 10.784488, "lon": 76.65613, "operator": "EZYGO", "address": {"street": "", "housenumber": "", "postcode": "", "city": "", "state": "", "country": ""}, "power": {"max_kw": null, "sockets": [], "capacity": 0}, "source": "osm", "tags": {"fee": "yes", "access": "", "opening_hours": "", "authentication": "", "brand": "", "network": "", "operator": "EZYGO"}, "amenities": {"fee": true}}, {"id": "osm-13586349702", "name": "EVOK ( Electric Vehicle Owners Kerala )", "type": "charging_station", "lat": 10.431598, "lon": 76.142475, "operator": "EVOK ( Electric Vehicle Owners Kerala )", "address": {"street": "", "housenumber": "", "postcode": "", "city": "", "state": "", "country": ""}, "power": {"max_kw": null, "sockets": [], "capacity": 0}, "source": "osm", "tags": {"fee": "", "access": "", "opening_hours": "", "authentication": "", "brand": "", "network": "", "operator": "EVOK ( Electric Vehicle Owners Kerala )"}, "amenities": {"fee": false}}, {"id": "osm-13609193888", "name": "Indian Oil", "type": "charging_station", "lat": 10.116898, "lon": 76.487094, "operator": "Unknown", "address": {"street": "", "housenumber": "", "postcode": "", "city": "", "state": "", "country": ""}, "power": {"max_kw": null, "sockets": [{"type": "Type2 Combo", "kw": null, "count": 2}], "capacity": 2}, "source": "osm", "tags": {"fee": "", "access": "", "opening_hours": "", "authentication": "", "brand": "Indian Oil", "network": "", "operator": ""}, "amenities": {"fee": false}}], "count": 38}