{"tile": "poi-tile-47-26", "lat": 47, "lon": 26, "stations": [{"id": "osm-7488650936", "name": "ChargePoint", "type": "charging_station", "lat": 47.733991, "lon": 26.671221, "operator": "Unknown", "address": {"street": "", "housenumber": "", "postcode": "", "city": "", "state": "", "country": ""}, "power": {"max_kw": null, "sockets": [], "capacity": 0}, "source": "osm", "tags": {"fee": "", "access": "", "opening_hours": "", "authentication": "", "brand": "ChargePoint", "network": "", "operator": ""}, "amenities": {"fee": false}}, {"id": "osm-7488650937", "name": "ChargePoint", "type": "charging_station", "lat": 47.656912, "lon": 26.2634, "operator": "ChargePoint", "address": {"street": "", "housenumber": "", "postcode": "", "city": "", "state": "", "country": ""}, "power": {"max_kw": null, "sockets": [], "capacity": 0}, "source": "osm", "tags": {"fee": "", "access": "", "opening_hours": "", "authentication": "", "brand": "ChargePoint", "network": "", "operator": "ChargePoint"}, "amenities": {"fee": false}}, {"id": "osm-8039639386", "name": "Kaufland", "type": "charging_station", "lat": 47.728079, "lon": 26.671665, "operator": "Kaufland", "address": {"street": "", "housenumber": "", "postcode": "", "city": "", "state": "", "country": ""}, "power": {"max_kw": null, "sockets": [], "capacity": 0}, "source": "osm", "tags": {"fee": "", "access": "yes", "opening_hours": "", "authentication": "", "brand": "", "network": "", "operator": "Kaufland"}, "amenities": {"fee": false}}, {"id": "osm-8620240617", "name": "EV Charging Station", "type": "charging_station", "lat": 47.20159, "lon": 26.360144, "operator": "Unknown", "address": {"street": "", "housenumber": "", "postcode": "", "city": "", "state": "", "country": ""}, "power": {"max_kw": null, "sockets": [], "capacity": 0}, "source": "osm", "tags": {"fee": "", "access": "", "opening_hours": "", "authentication": "", "brand": "", "network": "", "operator": ""}, "amenities": {"fee": false}}, {"id": "osm-9180186633", "name": "EV Charging Station", "type": "charging_station", "lat": 47.209826, "lon": 26.396459, "operator": "Unknown", "address": {"street": "", "housenumber": "", "postcode": "", "city": "", "state": "", "country": ""}, "power": {"max_kw": null, "sockets": [], "capacity": 0}, "source": "osm", "tags": {"fee": "", "access": "", "opening_hours": "", "authentication": "", "brand": "", "network": "", "operator": ""}, "amenities": {"fee": false}}, {"id": "osm-13184456797", "name": "EV SPOTS", "type": "charging_station", "lat": 47.65817, "lon": 26.272102, "operator": "Unknown", "address": {"street": "Calea Unirii", "housenumber": "22", "postcode": "", "city": "Suceava", "state": "", "country": ""}, "power": {"max_kw": null, "sockets": [], "capacity": 0}, "source": "osm", "tags": {"fee": "yes", "access": "", "opening_hours": "", "authentication": "", "brand": "EV SPOTS", "network": "", "operator": ""}, "amenities": {"fee": true}}], "count": 6}