{"tile": "poi-tile-49--126", "lat": 49, "lon": -126, "stations": [{"id": "osm-10861500680", "name": "EV Charging Station", "type": "charging_station", "lat": 49.619931, "lon": -125.032808, "operator": "Unknown", "address": {"street": "", "housenumber": "", "postcode": "", "city": "", "state": "", "country": ""}, "power": {"max_kw": null, "sockets": [], "capacity": 0}, "source": "osm", "tags": {"fee": "no", "access": "customers", "opening_hours": "", "authentication": "", "brand": "", "network": "", "operator": ""}, "amenities": {"fee": false}}, {"id": "osm-11126774667", "name": "EV Charging Station", "type": "charging_station", "lat": 49.15301, "lon": -125.904935, "operator": "Unknown", "address": {"street": "", "housenumber": "", "postcode": "", "city": "", "state": "", "country": ""}, "power": {"max_kw": null, "sockets": [], "capacity": 0}, "source": "osm", "tags": {"fee": "", "access": "", "opening_hours": "", "authentication": "", "brand": "", "network": "", "operator": ""}, "amenities": {"fee": false}}, {"id": "osm-12114112569", "name": "EV Charging Station", "type": "charging_station", "lat": 49.619085, "lon": -125.032259, "operator": "Unknown", "address": {"street": "", "housenumber": "", "postcode": "V0R1S0", "city": "", "state": "", "country": ""}, "power": {"max_kw": null, "sockets": [], "capacity": 0}, "source": "osm", "tags": {"fee": "yes", "access": "yes", "opening_hours": "24/7", "authentication": "", "brand": "", "network": "", "operator": ""}, "amenities": {"fee": true}}, {"id": "osm-12672316534", "name": "ChargePoint", "type": "charging_station", "lat": 49.978962, "lon": -125.246794, "operator": "ChargePoint", "address": {"street": "", "housenumber": "", "postcode": "", "city": "", "state": "", "country": ""}, "power": {"max_kw": null, "sockets": [], "capacity": 0}, "source": "osm", "tags": {"fee": "", "access": "", "opening_hours": "", "authentication": "", "brand": "ChargePoint", "network": "", "operator": "ChargePoint"}, "amenities": {"fee": false}}, {"id": "osm-12672320184", "name": "ChargePoint", "type": "charging_station", "lat": 49.978942, "lon": -125.246669, "operator": "ChargePoint", "address": {"street": "", "housenumber": "", "postcode": "", "city": "", "state": "", "country": ""}, "power": {"max_kw": null, "sockets": [], "capacity": 0}, "source": "osm", "tags": {"fee": "", "access": "", "opening_hours": "", "authentication": "", "brand": "ChargePoint", "network": "", "operator": "ChargePoint"}, "amenities": {"fee": false}}, {"id": "osm-12696933431", "name": "EV Charging Station", "type": "charging_station", "lat": 49.686943, "lon": -125.001533, "operator": "Unknown", "address": {"street": "", "housenumber": "", "postcode": "", "city": "", "state": "", "country": ""}, "power": {"max_kw": null, "sockets": [], "capacity": 0}, "source": "osm", "tags": {"fee": "no", "access": "yes", "opening_hours": "", "authentication": "", "brand": "", "network": "", "operator": ""}, "amenities": {"fee": false}}, {"id": "osm-12696933432", "name": "EV Charging Station", "type": "charging_station", "lat": 49.624306, "lon": -125.027013, "operator": "Unknown", "address": {"street": "", "housenumber": "", "postcode": "", "city": "", "state": "", "country": ""}, "power": {"max_kw": null, "sockets": [], "capacity": 0}, "source": "osm", "tags": {"fee": "no", "access": "private", "opening_hours": "", "authentication": "", "brand": "", "network": "", "operator": ""}, "amenities": {"fee": false}}, {"id": "osm-12709129631", "name": "EV Charging Station", "type": "charging_station", "lat": 49.623728, "lon": -125.036441, "operator": "Unknown", "address": {"street": "", "housenumber": "", "postcode": "", "city": "", "state": "", "country": ""}, "power": {"max_kw": null, "sockets": [], "capacity": 0}, "source": "osm", "tags": {"fee": "no", "access": "", "opening_hours": "", "authentication": "", "brand": "", "network": "", "operator": ""}, "amenities": {"fee": false}}, {"id": "osm-12777782836", "name": "ChargePoint", "type": "charging_station", "lat": 49.634968, "lon": -125.004058, "operator": "Unknown", "address": {"street": "", "housenumber": "", "postcode": "", "city": "", "state": "", "country": ""}, "power": {"max_kw": null, "sockets": [], "capacity": 0}, "source": "osm", "tags": {"fee": "no", "access": "", "opening_hours": "", "authentication": "", "brand": "ChargePoint", "network": "", "operator": ""}, "amenities": {"fee": false}}, {"id": "osm-12778469203", "name": "EV Charging Station", "type": "charging_station", "lat": 49.294934, "lon": -125.299695, "operator": "Unknown", "address": {"street": "", "housenumber": "", "postcode": "", "city": "", "state": "", "country": ""}, "power": {"max_kw": null, "sockets": [], "capacity": 0}, "source": "osm", "tags": {"fee": "", "access": "", "opening_hours": "", "authentication": "", "brand": "", "network": "", "operator": ""}, "amenities": {"fee": false}}, {"id": "osm-12840402198", "name": "Tesla Supercharger", "type": "charging_station", "lat": 49.153331, "lon": -125.907293, "operator": "Tesla", "address": {"street": "First Street", "housenumber": "140", "postcode": "V0R 2Z0", "city": "Tofino", "state": "BC", "country": "CA"}, "power": {"max_kw": null, "sockets": [{"type": "Nacs", "kw": null, "count": 12}], "capacity": 12}, "source": "osm", "tags": {"fee": "yes", "access": "yes", "opening_hours": "24/7", "authentication": "", "brand": "Tesla Supercharger", "network": "Supercharger", "operator": "Tesla, Inc."}, "amenities": {"fee": true}}, {"id": "osm-13003408659", "name": "Flo", "type": "charging_station", "lat": 49.647087, "lon": -125.054262, "operator": "FLO", "address": {"street": "", "housenumber": "", "postcode": "", "city": "", "state": "", "country": ""}, "power": {"max_kw": null, "sockets": [], "capacity": 0}, "source": "osm", "tags": {"fee": "yes", "access": "yes", "opening_hours": "", "authentication": "", "brand": "Flo", "network": "", "operator": "Flo"}, "amenities": {"fee": true}}, {"id": "osm-13125581693", "name": "Pacific Sands", "type": "charging_station", "lat": 49.10642, "lon": -125.872224, "operator": "Pacific Sands", "address": {"street": "", "housenumber": "", "postcode": "", "city": "", "state": "", "country": ""}, "power": {"max_kw": null, "sockets": [], "capacity": 0}, "source": "osm", "tags": {"fee": "", "access": "", "opening_hours": "", "authentication": "", "brand": "", "network": "", "operator": "Pacific Sands"}, "amenities": {"fee": false}}, {"id": "osm-13126321982", "name": "Pacific Sands", "type": "charging_station", "lat": 49.107049, "lon": -125.873397, "operator": "Pacific Sands", "address": {"street": "", "housenumber": "", "postcode": "", "city": "", "state": "", "country": ""}, "power": {"max_kw": null, "sockets": [], "capacity": 0}, "source": "osm", "tags": {"fee": "", "access": "", "opening_hours": "", "authentication": "", "brand": "", "network": "", "operator": "Pacific Sands"}, "amenities": {"fee": false}}, {"id": "osm-13327305201", "name": "PKM", "type": "charging_station", "lat": 49.130911, "lon": -125.900234, "operator": "PKM", "address": {"street": "", "housenumber": "", "postcode": "", "city": "", "state": "", "country": ""}, "power": {"max_kw": null, "sockets": [], "capacity": 0}, "source": "osm", "tags": {"fee": "", "access": "", "opening_hours": "", "authentication": "", "brand": "", "network": "", "operator": "PKM"}, "amenities": {"fee": false}}], "count": 15}