{"tile": "poi-tile-31-121", "lat": 31, "lon": 121, "stations": [{"id": "osm-2870690600", "name": "EV Charging Station", "type": "charging_station", "lat": 31.029273, "lon": 121.435535, "operator": "Unknown", "address": {"street": "", "housenumber": "", "postcode": "", "city": "", "state": "", "country": ""}, "power": {"max_kw": null, "sockets": [], "capacity": 0}, "source": "osm", "tags": {"fee": "", "access": "", "opening_hours": "", "authentication": "", "brand": "", "network": "", "operator": ""}, "amenities": {"fee": false}}, {"id": "osm-3048487060", "name": "Tesla Supercharger Jiading", "type": "charging_station", "lat": 31.281544, "lon": 121.162939, "operator": "Tesla", "address": {"street": "", "housenumber": "", "postcode": "", "city": "", "state": "", "country": ""}, "power": {"max_kw": null, "sockets": [], "capacity": 0}, "source": "osm", "tags": {"fee": "", "access": "", "opening_hours": "24/7", "authentication": "", "brand": "Tesla Supercharger", "network": "", "operator": "Tesla, Inc."}, "amenities": {"fee": false}}, {"id": "osm-3070353482", "name": "Tesla Supercharger Jinqiao", "type": "charging_station", "lat": 31.242654, "lon": 121.575214, "operator": "Tesla", "address": {"street": "", "housenumber": "", "postcode": "", "city": "", "state": "", "country": ""}, "power": {"max_kw": null, "sockets": [], "capacity": 0}, "source": "osm", "tags": {"fee": "", "access": "customers", "opening_hours": "24/7", "authentication": "", "brand": "Tesla Supercharger", "network": "", "operator": "Tesla, Inc."}, "amenities": {"fee": false}}, {"id": "osm-3070364986", "name": "Tesla Supercharger Shanghai Minhang", "type": "charging_station", "lat": 31.071862, "lon": 121.420448, "operator": "Tesla", "address": {"street": "", "housenumber": "", "postcode": "", "city": "", "state": "", "country": ""}, "power": {"max_kw": null, "sockets": [], "capacity": 0}, "source": "osm", "tags": {"fee": "", "access": "customers", "opening_hours": "24/7", "authentication": "", "brand": "Tesla Supercharger", "network": "", "operator": "Tesla, Inc."}, "amenities": {"fee": false}}, {"id": "osm-4332492353", "name": "蓄玖", "type": "charging_station", "lat": 31.229631, "lon": 121.465056, "operator": "蓄玖", "address": {"street": "", "housenumber": "", "postcode": "", "city": "", "state": "", "country": ""}, "power": {"max_kw": null, "sockets": [], "capacity": 0}, "source": "osm", "tags": {"fee": "", "access": "", "opening_hours": "", "authentication": "", "brand": "", "network": "", "operator": "蓄玖"}, "amenities": {"fee": false}}, {"id": "osm-4340977585", "name": "EV Charging Station", "type": "charging_station", "lat": 31.22252, "lon": 121.448014, "operator": "Unknown", "address": {"street": "巨鹿路", "housenumber": "", "postcode": "", "city": "", "state": "", "country": ""}, "power": {"max_kw": null, "sockets": [], "capacity": 0}, "source": "osm", "tags": {"fee": "", "access": "", "opening_hours": "", "authentication": "", "brand": "", "network": "", "operator": ""}, "amenities": {"fee": false}}, {"id": "osm-4450432247", "name": "EV Charging Station", "type": "charging_station", "lat": 31.230381, "lon": 121.448244, "operator": "Unknown", "address": {"street": "南阳路", "housenumber": "", "postcode": "", "city": "上海", "state": "", "country": ""}, "power": {"max_kw": null, "sockets": [], "capacity": 0}, "source": "osm", "tags": {"fee": "", "access": "", "opening_hours": "", "authentication": "", "brand": "", "network": "", "operator": ""}, "amenities": {"fee": false}}, {"id": "osm-4922066106", "name": "evCar", "type": "charging_station", "lat": 31.274449, "lon": 121.162902, "operator": "evCar", "address": {"street": "", "housenumber": "", "postcode": "", "city": "", "state": "", "country": ""}, "power": {"max_kw": null, "sockets": [], "capacity": 0}, "source": "osm", "tags": {"fee": "", "access": "", "opening_hours": "", "authentication": "", "brand": "", "network": "", "operator": "evCar"}, "amenities": {"fee": false}}, {"id": "osm-5031490422", "name": "Tesla Supercharger", "type": "charging_station", "lat": 31.231233, "lon": 121.457757, "operator": "Tesla", "address": {"street": "", "housenumber": "", "postcode": "", "city": "", "state": "", "country": ""}, "power": {"max_kw": null, "sockets": [], "capacity": 0}, "source": "osm", "tags": {"fee": "", "access": "", "opening_hours": "", "authentication": "", "brand": "Tesla Supercharger", "network": "", "operator": "Tesla"}, "amenities": {"fee": false}}, {"id": "osm-5042026631", "name": "EV Charging Station", "type": "charging_station", "lat": 31.185055, "lon": 121.552415, "operator": "Unknown", "address": {"street": "", "housenumber": "", "postcode": "", "city": "", "state": "", "country": ""}, "power": {"max_kw": null, "sockets": [], "capacity": 0}, "source": "osm", "tags": {"fee": "", "access": "", "opening_hours": "", "authentication": "", "brand": "", "network": "", "operator": ""}, "amenities": {"fee": false}}, {"id": "osm-5042026632", "name": "市南供电局", "type": "charging_station", "lat": 31.171322, "lon": 121.387655, "operator": "市南供电局", "address": {"street": "", "housenumber": "", "postcode": "", "city": "", "state": "", "country": ""}, "power": {"max_kw": null, "sockets": [], "capacity": 0}, "source": "osm", "tags": {"fee": "", "access": "", "opening_hours": "", "authentication": "", "brand": "", "network": "", "operator": "市南供电局"}, "amenities": {"fee": false}}, {"id": "osm-5204194241", "name": "EV Charging Station", "type": "charging_station", "lat": 31.02597, "lon": 121.424515, "operator": "Unknown", "address": {"street": "", "housenumber": "", "postcode": "", "city": "", "state": "", "country": ""}, "power": {"max_kw": null, "sockets": [], "capacity": 0}, "source": "osm", "tags": {"fee": "", "access": "", "opening_hours": "", "authentication": "", "brand": "", "network": "", "operator": ""}, "amenities": {"fee": false}}, {"id": "osm-6536533654", "name": "EV Charging Station", "type": "charging_station", "lat": 31.203438, "lon": 121.386985, "operator": "Unknown", "address": {"street": "", "housenumber": "", "postcode": "", "city": "", "state": "", "country": ""}, "power": {"max_kw": null, "sockets": [], "capacity": 0}, "source": "osm", "tags": {"fee": "", "access": "", "opening_hours": "", "authentication": "", "brand": "", "network": "", "operator": ""}, "amenities": {"fee": false}}, {"id": "osm-6586117580", "name": "EV Charging Station", "type": "charging_station", "lat": 31.216822, "lon": 121.395133, "operator": "Unknown", "address": {"street": "", "housenumber": "", "postcode": "", "city": "", "state": "", "country": ""}, "power": {"max_kw": null, "sockets": [], "capacity": 0}, "source": "osm", "tags": {"fee": "", "access": "", "opening_hours": "", "authentication": "", "brand": "", "network": "", "operator": ""}, "amenities": {"fee": false}}, {"id": "osm-6611431336", "name": "EV Charging Station", "type": "charging_station", "lat": 31.280731, "lon": 121.447343, "operator": "Unknown", "address": {"street": "", "housenumber": "", "postcode": "", "city": "", "state": "", "country": ""}, "power": {"max_kw": null, "sockets": [], "capacity": 0}, "source": "osm", "tags": {"fee": "", "access": "", "opening_hours": "", "authentication": "", "brand": "", "network": "", "operator": ""}, "amenities": {"fee": false}}, {"id": "osm-7205583591", "name": "EV Charging Station", "type": "charging_station", "lat": 31.222748, "lon": 121.363726, "operator": "Unknown", "address": {"street": "", "housenumber": "", "postcode": "", "city": "", "state": "", "country": ""}, "power": {"max_kw": null, "sockets": [], "capacity": 0}, "source": "osm", "tags": {"fee": "", "access": "", "opening_hours": "", "authentication": "", "brand": "", "network": "", "operator": ""}, "amenities": {"fee": false}}, {"id": "osm-9817677860", "name": "EV Charging Station", "type": "charging_station", "lat": 31.146377, "lon": 121.758994, "operator": "Unknown", "address": {"street": "", "housenumber": "", "postcode": "", "city": "", "state": "", "country": ""}, "power": {"max_kw": null, "sockets": [], "capacity": 0}, "source": "osm", "tags": {"fee": "", "access": "", "opening_hours": "", "authentication": "", "brand": "", "network": "", "operator": ""}, "amenities": {"fee": false}}, {"id": "osm-9836366589", "name": "EV Charging Station", "type": "charging_station", "lat": 31.226516, "lon": 121.44779, "operator": "Unknown", "address": {"street": "", "housenumber": "", "postcode": "", "city": "", "state": "", "country": ""}, "power": {"max_kw": null, "sockets": [], "capacity": 0}, "source": "osm", "tags": {"fee": "", "access": "", "opening_hours": "", "authentication": "", "brand": "", "network": "", "operator": ""}, "amenities": {"fee": false}}, {"id": "osm-9960481290", "name": "Nio Power", "type": "charging_station", "lat": 31.286605, "lon": 121.171376, "operator": "Unknown", "address": {"street": "", "housenumber": "", "postcode": "", "city": "", "state": "", "country": ""}, "power": {"max_kw": null, "sockets": [], "capacity": 0}, "source": "osm", "tags": {"fee": "", "access": "", "opening_hours": "", "authentication": "", "brand": "NIO Power", "network": "", "operator": ""}, "amenities": {"fee": false}}, {"id": "osm-10701821823", "name": "小鹏", "type": "charging_station", "lat": 31.275316, "lon": 121.187187, "operator": "Unknown", "address": {"street": "", "housenumber": "", "postcode": "", "city": "", "state": "", "country": ""}, "power": {"max_kw": null, "sockets": [], "capacity": 0}, "source": "osm", "tags": {"fee": "", "access": "", "opening_hours": "", "authentication": "", "brand": "小鹏", "network": "", "operator": ""}, "amenities": {"fee": false}}, {"id": "osm-10821444729", "name": "度普E站", "type": "charging_station", "lat": 31.35458, "lon": 121.337597, "operator": "度普（苏州）新能源科技有限公司", "address": {"street": "", "housenumber": "", "postcode": "", "city": "", "state": "", "country": ""}, "power": {"max_kw": null, "sockets": [], "capacity": 0}, "source": "osm", "tags": {"fee": "yes", "access": "yes", "opening_hours": "", "authentication": "", "brand": "度普E站", "network": "", "operator": "度普（苏州）新能源科技有限公司"}, "amenities": {"fee": true}}, {"id": "osm-11166345898", "name": "e充站", "type": "charging_station", "lat": 31.354565, "lon": 121.337769, "operator": "上海依威能源科技有限公司", "address": {"street": "", "housenumber": "", "postcode": "", "city": "", "state": "", "country": ""}, "power": {"max_kw": null, "sockets": [], "capacity": 0}, "source": "osm", "tags": {"fee": "", "access": "yes", "opening_hours": "", "authentication": "", "brand": "e充站", "network": "", "operator": "上海依威能源科技有限公司"}, "amenities": {"fee": false}}, {"id": "osm-11266492346", "name": "国家电网", "type": "charging_station", "lat": 31.114601, "lon": 121.584311, "operator": "State Grid Corp.", "address": {"street": "", "housenumber": "", "postcode": "", "city": "", "state": "", "country": ""}, "power": {"max_kw": null, "sockets": [], "capacity": 0}, "source": "osm", "tags": {"fee": "", "access": "", "opening_hours": "", "authentication": "", "brand": "国家电网", "network": "", "operator": "国家电网有限公司"}, "amenities": {"fee": false}}, {"id": "osm-11781013598", "name": "Tesla Supercharger", "type": "charging_station", "lat": 31.345014, "lon": 121.428168, "operator": "Tesla", "address": {"street": "", "housenumber": "", "postcode": "", "city": "", "state": "", "country": ""}, "power": {"max_kw": null, "sockets": [], "capacity": 0}, "source": "osm", "tags": {"fee": "", "access": "", "opening_hours": "", "authentication": "", "brand": "Tesla Supercharger", "network": "", "operator": "Tesla, Inc."}, "amenities": {"fee": false}}, {"id": "osm-11818128116", "name": "蔚来换电站", "type": "charging_station", "lat": 31.204995, "lon": 121.403825, "operator": "Unknown", "address": {"street": "", "housenumber": "", "postcode": "", "city": "", "state": "", "country": ""}, "power": {"max_kw": null, "sockets": [], "capacity": 0}, "source": "osm", "tags": {"fee": "", "access": "", "opening_hours": "", "authentication": "", "brand": "NIO Power", "network": "", "operator": ""}, "amenities": {"fee": false}}, {"id": "osm-11993230526", "name": "特斯拉", "type": "charging_station", "lat": 31.202335, "lon": 121.304805, "operator": "Unknown", "address": {"street": "", "housenumber": "", "postcode": "", "city": "", "state": "", "country": ""}, "power": {"max_kw": null, "sockets": [], "capacity": 0}, "source": "osm", "tags": {"fee": "", "access": "", "opening_hours": "", "authentication": "", "brand": "特斯拉", "network": "", "operator": ""}, "amenities": {"fee": false}}, {"id": "osm-12342761241", "name": "普天", "type": "charging_station", "lat": 31.131655, "lon": 121.534831, "operator": "普天", "address": {"street": "", "housenumber": "", "postcode": "", "city": "", "state": "", "country": ""}, "power": {"max_kw": null, "sockets": [], "capacity": 0}, "source": "osm", "tags": {"fee": "", "access": "", "opening_hours": "", "authentication": "", "brand": "普天", "network": "", "operator": "普天"}, "amenities": {"fee": false}}, {"id": "osm-12698811029", "name": "EV Charging Station", "type": "charging_station", "lat": 31.306561, "lon": 121.43, "operator": "Unknown", "address": {"street": "", "housenumber": "", "postcode": "", "city": "", "state": "", "country": ""}, "power": {"max_kw": null, "sockets": [], "capacity": 0}, "source": "osm", "tags": {"fee": "", "access": "", "opening_hours": "", "authentication": "", "brand": "", "network": "", "operator": ""}, "amenities": {"fee": false}}, {"id": "osm-12971284655", "name": "开迈斯", "type": "charging_station", "lat": 31.217018, "lon": 121.470393, "operator": "Unknown", "address": {"street": "", "housenumber": "", "postcode": "", "city": "", "state": "", "country": ""}, "power": {"max_kw": null, "sockets": [], "capacity": 0}, "source": "osm", "tags": {"fee": "", "access": "", "opening_hours": "", "authentication": "", "brand": "开迈斯", "network": "", "operator": ""}, "amenities": {"fee": false}}, {"id": "osm-12971318049", "name": "瑞建路超充站", "type": "charging_station", "lat": 31.100627, "lon": 121.594174, "operator": "Unknown", "address": {"street": "", "housenumber": "", "postcode": "", "city": "", "state": "", "country": ""}, "power": {"max_kw": null, "sockets": [], "capacity": 0}, "source": "osm", "tags": {"fee": "", "access": "", "opening_hours": "", "authentication": "", "brand": "小桔充电", "network": "", "operator": ""}, "amenities": {"fee": false}}, {"id": "osm-13028508939", "name": "EV Charging Station", "type": "charging_station", "lat": 31.407288, "lon": 121.21661, "operator": "Unknown", "address": {"street": "", "housenumber": "", "postcode": "", "city": "", "state": "", "country": ""}, "power": {"max_kw": null, "sockets": [], "capacity": 0}, "source": "osm", "tags": {"fee": "", "access": "", "opening_hours": "", "authentication": "", "brand": "", "network": "", "operator": ""}, "amenities": {"fee": false}}, {"id": "osm-13033700874", "name": "小桔充电", "type": "charging_station", "lat": 31.259167, "lon": 121.508448, "operator": "Unknown", "address": {"street": "", "housenumber": "", "postcode": "", "city": "", "state": "", "country": ""}, "power": {"max_kw": null, "sockets": [], "capacity": 0}, "source": "osm", "tags": {"fee": "", "access": "", "opening_hours": "", "authentication": "", "brand": "小桔充电", "network": "", "operator": ""}, "amenities": {"fee": false}}, {"id": "osm-13033748218", "name": "快卜", "type": "charging_station", "lat": 31.274928, "lon": 121.527065, "operator": "Unknown", "address": {"street": "", "housenumber": "", "postcode": "", "city": "", "state": "", "country": ""}, "power": {"max_kw": null, "sockets": [], "capacity": 0}, "source": "osm", "tags": {"fee": "", "access": "", "opening_hours": "", "authentication": "", "brand": "快卜", "network": "", "operator": ""}, "amenities": {"fee": false}}, {"id": "osm-13033943879", "name": "理想", "type": "charging_station", "lat": 31.170416, "lon": 121.361705, "operator": "Unknown", "address": {"street": "", "housenumber": "", "postcode": "", "city": "", "state": "", "country": ""}, "power": {"max_kw": null, "sockets": [], "capacity": 0}, "source": "osm", "tags": {"fee": "", "access": "", "opening_hours": "", "authentication": "", "brand": "理想", "network": "", "operator": ""}, "amenities": {"fee": false}}, {"id": "osm-13036939275", "name": "享能充电", "type": "charging_station", "lat": 31.175028, "lon": 121.790982, "operator": "Unknown", "address": {"street": "", "housenumber": "", "postcode": "", "city": "", "state": "", "country": ""}, "power": {"max_kw": null, "sockets": [], "capacity": 0}, "source": "osm", "tags": {"fee": "", "access": "", "opening_hours": "", "authentication": "", "brand": "享能充电", "network": "", "operator": ""}, "amenities": {"fee": false}}, {"id": "osm-13037502433", "name": "小桔充电", "type": "charging_station", "lat": 31.064509, "lon": 121.303428, "operator": "Unknown", "address": {"street": "", "housenumber": "", "postcode": "", "city": "", "state": "", "country": ""}, "power": {"max_kw": null, "sockets": [], "capacity": 0}, "source": "osm", "tags": {"fee": "", "access": "", "opening_hours": "", "authentication": "", "brand": "小桔充电", "network": "", "operator": ""}, "amenities": {"fee": false}}, {"id": "osm-13037504186", "name": "卫莱电明月璟辰苑东门充电站", "type": "charging_station", "lat": 31.294807, "lon": 121.055011, "operator": "Unknown", "address": {"street": "", "housenumber": "", "postcode": "", "city": "", "state": "", "country": ""}, "power": {"max_kw": null, "sockets": [], "capacity": 0}, "source": "osm", "tags": {"fee": "", "access": "", "opening_hours": "", "authentication": "", "brand": "卫莱电", "network": "", "operator": ""}, "amenities": {"fee": false}}, {"id": "osm-13124702831", "name": "中国石油", "type": "charging_station", "lat": 31.024835, "lon": 121.151181, "operator": "Unknown", "address": {"street": "", "housenumber": "", "postcode": "", "city": "", "state": "", "country": ""}, "power": {"max_kw": null, "sockets": [], "capacity": 0}, "source": "osm", "tags": {"fee": "", "access": "", "opening_hours": "", "authentication": "", "brand": "中国石油", "network": "", "operator": ""}, "amenities": {"fee": false}}, {"id": "osm-13138492530", "name": "上海捷威达能源科技有限公司充电站", "type": "charging_station", "lat": 31.25665, "lon": 121.358044, "operator": "Unknown", "address": {"street": "", "housenumber": "", "postcode": "", "city": "", "state": "", "country": ""}, "power": {"max_kw": null, "sockets": [], "capacity": 0}, "source": "osm", "tags": {"fee": "", "access": "", "opening_hours": "", "authentication": "", "brand": "", "network": "", "operator": ""}, "amenities": {"fee": false}}, {"id": "osm-13138531485", "name": "BP", "type": "charging_station", "lat": 31.226839, "lon": 121.526347, "operator": "BP Pulse", "address": {"street": "", "housenumber": "", "postcode": "", "city": "", "state": "", "country": ""}, "power": {"max_kw": null, "sockets": [], "capacity": 0}, "source": "osm", "tags": {"fee": "", "access": "", "opening_hours": "", "authentication": "", "brand": "", "network": "", "operator": "BP"}, "amenities": {"fee": false}}, {"id": "osm-13138544223", "name": "蔚来超充站", "type": "charging_station", "lat": 31.253469, "lon": 121.449489, "operator": "Unknown", "address": {"street": "", "housenumber": "", "postcode": "", "city": "", "state": "", "country": ""}, "power": {"max_kw": null, "sockets": [], "capacity": 0}, "source": "osm", "tags": {"fee": "", "access": "", "opening_hours": "", "authentication": "", "brand": "NIO Power", "network": "", "operator": ""}, "amenities": {"fee": false}}, {"id": "osm-13351442015", "name": "莱电", "type": "charging_station", "lat": 31.52734, "lon": 121.828975, "operator": "Unknown", "address": {"street": "", "housenumber": "", "postcode": "", "city": "", "state": "", "country": ""}, "power": {"max_kw": null, "sockets": [], "capacity": 0}, "source": "osm", "tags": {"fee": "", "access": "", "opening_hours": "", "authentication": "", "brand": "莱电", "network": "", "operator": ""}, "amenities": {"fee": false}}, {"id": "osm-13351877718", "name": "特来电", "type": "charging_station", "lat": 31.225824, "lon": 121.495519, "operator": "Unknown", "address": {"street": "", "housenumber": "", "postcode": "", "city": "", "state": "", "country": ""}, "power": {"max_kw": null, "sockets": [], "capacity": 0}, "source": "osm", "tags": {"fee": "", "access": "", "opening_hours": "", "authentication": "", "brand": "特来电", "network": "", "operator": ""}, "amenities": {"fee": false}}, {"id": "osm-13387930601", "name": "EV Charging Station", "type": "charging_station", "lat": 31.198401, "lon": 121.389139, "operator": "Unknown", "address": {"street": "", "housenumber": "", "postcode": "", "city": "", "state": "", "country": ""}, "power": {"max_kw": null, "sockets": [], "capacity": 0}, "source": "osm", "tags": {"fee": "", "access": "", "opening_hours": "", "authentication": "", "brand": "", "network": "", "operator": ""}, "amenities": {"fee": false}}, {"id": "osm-13434364197", "name": "上海充典新能源科技有限公司充电站", "type": "charging_station", "lat": 31.131779, "lon": 121.612581, "operator": "Unknown", "address": {"street": "", "housenumber": "", "postcode": "", "city": "", "state": "", "country": ""}, "power": {"max_kw": null, "sockets": [], "capacity": 0}, "source": "osm", "tags": {"fee": "", "access": "", "opening_hours": "", "authentication": "", "brand": "", "network": "", "operator": ""}, "amenities": {"fee": false}}, {"id": "osm-13436983618", "name": "上海源脉诺联新能源科技有限公司", "type": "charging_station", "lat": 31.232843, "lon": 121.432782, "operator": "Unknown", "address": {"street": "", "housenumber": "", "postcode": "", "city": "", "state": "", "country": ""}, "power": {"max_kw": null, "sockets": [], "capacity": 0}, "source": "osm", "tags": {"fee": "", "access": "", "opening_hours": "", "authentication": "", "brand": "", "network": "", "operator": ""}, "amenities": {"fee": false}}, {"id": "osm-13437086509", "name": "b'p", "type": "charging_station", "lat": 31.237045, "lon": 121.470258, "operator": "BP Pulse", "address": {"street": "", "housenumber": "", "postcode": "", "city": "", "state": "", "country": ""}, "power": {"max_kw": null, "sockets": [], "capacity": 0}, "source": "osm", "tags": {"fee": "", "access": "", "opening_hours": "", "authentication": "", "brand": "b'p", "network": "", "operator": "BP"}, "amenities": {"fee": false}}, {"id": "osm-13437149980", "name": "理想", "type": "charging_station", "lat": 31.291152, "lon": 121.504515, "operator": "Unknown", "address": {"street": "", "housenumber": "", "postcode": "", "city": "", "state": "", "country": ""}, "power": {"max_kw": null, "sockets": [], "capacity": 0}, "source": "osm", "tags": {"fee": "", "access": "", "opening_hours": "", "authentication": "", "brand": "理想", "network": "", "operator": ""}, "amenities": {"fee": false}}, {"id": "osm-13437175740", "name": "星星充电", "type": "charging_station", "lat": 31.201483, "lon": 121.416389, "operator": "Unknown", "address": {"street": "", "housenumber": "", "postcode": "", "city": "", "state": "", "country": ""}, "power": {"max_kw": null, "sockets": [], "capacity": 0}, "source": "osm", "tags": {"fee": "", "access": "", "opening_hours": "", "authentication": "", "brand": "星星充电", "network": "", "operator": ""}, "amenities": {"fee": false}}, {"id": "osm-13437175752", "name": "上海久滴源新能源科技有限公司充电站", "type": "charging_station", "lat": 31.198913, "lon": 121.417341, "operator": "Unknown", "address": {"street": "", "housenumber": "", "postcode": "", "city": "", "state": "", "country": ""}, "power": {"max_kw": null, "sockets": [], "capacity": 0}, "source": "osm", "tags": {"fee": "", "access": "", "opening_hours": "", "authentication": "", "brand": "", "network": "", "operator": ""}, "amenities": {"fee": false}}, {"id": "osm-13437226576", "name": "安悦充电", "type": "charging_station", "lat": 31.621908, "lon": 121.421877, "operator": "Unknown", "address": {"street": "", "housenumber": "", "postcode": "", "city": "", "state": "", "country": ""}, "power": {"max_kw": null, "sockets": [], "capacity": 0}, "source": "osm", "tags": {"fee": "", "access": "", "opening_hours": "", "authentication": "", "brand": "安悦充电", "network": "", "operator": ""}, "amenities": {"fee": false}}, {"id": "osm-13669643070", "name": "电能侠", "type": "charging_station", "lat": 31.156313, "lon": 121.180459, "operator": "Unknown", "address": {"street": "", "housenumber": "", "postcode": "", "city": "", "state": "", "country": ""}, "power": {"max_kw": null, "sockets": [], "capacity": 0}, "source": "osm", "tags": {"fee": "", "access": "", "opening_hours": "", "authentication": "", "brand": "电能侠", "network": "", "operator": ""}, "amenities": {"fee": false}}, {"id": "osm-13669702415", "name": "琥珀传能（江苏）智能设备制造有限公司充电站", "type": "charging_station", "lat": 31.254358, "lon": 121.018373, "operator": "Unknown", "address": {"street": "", "housenumber": "", "postcode": "", "city": "", "state": "", "country": ""}, "power": {"max_kw": null, "sockets": [], "capacity": 0}, "source": "osm", "tags": {"fee": "", "access": "", "opening_hours": "", "authentication": "", "brand": "", "network": "", "operator": ""}, "amenities": {"fee": false}}, {"id": "osm-13671414777", "name": "瞻星新能源（上海）有限公司充电站", "type": "charging_station", "lat": 31.276949, "lon": 121.535044, "operator": "Unknown", "address": {"street": "", "housenumber": "", "postcode": "", "city": "", "state": "", "country": ""}, "power": {"max_kw": null, "sockets": [], "capacity": 0}, "source": "osm", "tags": {"fee": "", "access": "", "opening_hours": "", "authentication": "", "brand": "", "network": "", "operator": ""}, "amenities": {"fee": false}}, {"id": "osm-13711260581", "name": "星星充电", "type": "charging_station", "lat": 31.269999, "lon": 121.203095, "operator": "Unknown", "address": {"street": "", "housenumber": "", "postcode": "", "city": "", "state": "", "country": ""}, "power": {"max_kw": null, "sockets": [], "capacity": 0}, "source": "osm", "tags": {"fee": "", "access": "", "opening_hours": "", "authentication": "", "brand": "星星充电", "network": "", "operator": ""}, "amenities": {"fee": false}}, {"id": "osm-13711297119", "name": "鲸充新能源科技有限公司充电站", "type": "charging_station", "lat": 31.031532, "lon": 121.530628, "operator": "Unknown", "address": {"street": "", "housenumber": "", "postcode": "", "city": "", "state": "", "country": ""}, "power": {"max_kw": null, "sockets": [], "capacity": 0}, "source": "osm", "tags": {"fee": "", "access": "", "opening_hours": "", "authentication": "", "brand": "", "network": "", "operator": ""}, "amenities": {"fee": false}}, {"id": "osm-13715684475", "name": "上海蝶尔新能源汽车服务有限公司充电站", "type": "charging_station", "lat": 31.221463, "lon": 121.440545, "operator": "Unknown", "address": {"street": "", "housenumber": "", "postcode": "", "city": "", "state": "", "country": ""}, "power": {"max_kw": null, "sockets": [], "capacity": 0}, "source": "osm", "tags": {"fee": "", "access": "", "opening_hours": "", "authentication": "", "brand": "", "network": "", "operator": ""}, "amenities": {"fee": false}}, {"id": "osm-13715684486", "name": "上海为司新能源有限公司充电站", "type": "charging_station", "lat": 31.223353, "lon": 121.436946, "operator": "Unknown", "address": {"street": "", "housenumber": "", "postcode": "", "city": "", "state": "", "country": ""}, "power": {"max_kw": null, "sockets": [], "capacity": 0}, "source": "osm", "tags": {"fee": "", "access": "", "opening_hours": "", "authentication": "", "brand": "", "network": "", "operator": ""}, "amenities": {"fee": false}}, {"id": "osm-13720618356", "name": "众巅（上海）新能源科技有限公司充电站", "type": "charging_station", "lat": 31.220552, "lon": 121.46592, "operator": "Unknown", "address": {"street": "", "housenumber": "", "postcode": "", "city": "", "state": "", "country": ""}, "power": {"max_kw": null, "sockets": [], "capacity": 0}, "source": "osm", "tags": {"fee": "", "access": "", "opening_hours": "", "authentication": "", "brand": "", "network": "", "operator": ""}, "amenities": {"fee": false}}], "count": 59}