{
  "format": "routesync-poi-v1.5.0",
  "tile": {
    "lat": 37,
    "lon": 38,
    "bounds": {
      "south": 37,
      "north": 38,
      "west": 38,
      "east": 39
    }
  },
  "generated": "2026-04-16T14:52:46Z",
  "count": 6,
  "pois": [
    {
      "id": "osm-7077989422",
      "name": "SHARZ Bera Akaryakıt",
      "type": "charging_station",
      "lat": 37.742814,
      "lon": 38.245649,
      "operator": "SHARZ",
      "address": {
        "street": "Sümerevler Mahallesi, 17165. Sk. No:13, 02030 Adıyaman Merkez/Ad",
        "city": "ADIYAMAN MERKEZ"
      },
      "power": {
        "max_kw": 22,
        "sockets": [
          {
            "type": "Type 2",
            "kw": 22,
            "count": 1
          }
        ]
      },
      "source": "osm",
      "tags": {
        "access": "",
        "fee": "yes",
        "brand": "",
        "network": "",
        "opening_hours": "24/7"
      },
      "amenities": {
        "opening_hours": "24/7",
        "fee": true
      }
    },
    {
      "id": "osm-11261044838",
      "name": "Astorşarj",
      "type": "charging_station",
      "lat": 37.279454,
      "lon": 38.793553,
      "operator": "Astor Enerji",
      "address": {},
      "source": "osm",
      "tags": {
        "access": "",
        "fee": "",
        "brand": "",
        "network": "",
        "opening_hours": ""
      }
    },
    {
      "id": "osm-11261104237",
      "name": "Astorşarj",
      "type": "charging_station",
      "lat": 37.395033,
      "lon": 38.863939,
      "operator": "Astor Enerji",
      "address": {},
      "source": "osm",
      "tags": {
        "access": "",
        "fee": "",
        "brand": "",
        "network": "",
        "opening_hours": ""
      }
    },
    {
      "id": "osm-11262067737",
      "name": "Astorşarj",
      "type": "charging_station",
      "lat": 37.182299,
      "lon": 38.80753,
      "operator": "Astor Enerji",
      "address": {},
      "source": "osm",
      "tags": {
        "access": "",
        "fee": "",
        "brand": "",
        "network": "",
        "opening_hours": ""
      }
    },
    {
      "id": "osm-13017708701",
      "name": "Solargize",
      "type": "charging_station",
      "lat": 37.273087,
      "lon": 38.795924,
      "operator": "Unbekannt",
      "address": {},
      "source": "osm",
      "tags": {
        "access": "",
        "fee": "",
        "brand": "",
        "network": "",
        "opening_hours": "24/7"
      },
      "amenities": {
        "opening_hours": "24/7"
      }
    },
    {
      "id": "osm-13127031401",
      "name": "Astor",
      "type": "charging_station",
      "lat": 37.100948,
      "lon": 38.187575,
      "operator": "Unbekannt",
      "address": {},
      "source": "osm",
      "tags": {
        "access": "",
        "fee": "",
        "brand": "",
        "network": "",
        "opening_hours": ""
      }
    }
  ]
}