{
  "format": "routesync-poi-v1.5.0",
  "tile": {
    "lat": 45,
    "lon": 21,
    "bounds": {
      "south": 45,
      "north": 46,
      "west": 21,
      "east": 22
    }
  },
  "generated": "2026-04-16T14:52:46Z",
  "count": 60,
  "pois": [
    {
      "id": "osm-4235395793",
      "name": "Ladeeinrichtung",
      "type": "charging_station",
      "lat": 45.768693,
      "lon": 21.220862,
      "operator": "Unbekannt",
      "address": {},
      "power": {
        "capacity": 2
      },
      "source": "osm",
      "tags": {
        "access": "yes",
        "fee": "",
        "brand": "",
        "network": "",
        "opening_hours": "8:00-19:00"
      },
      "amenities": {
        "opening_hours": "8:00-19:00"
      }
    },
    {
      "id": "osm-4235396553",
      "name": "Ladestation Primăria Municipiului Timișoara",
      "type": "charging_station",
      "lat": 45.753687,
      "lon": 21.226659,
      "operator": "Primăria Municipiului Timișoara",
      "address": {},
      "power": {
        "capacity": 1
      },
      "source": "osm",
      "tags": {
        "access": "yes",
        "fee": "no",
        "brand": "",
        "network": "",
        "opening_hours": ""
      },
      "amenities": {
        "fee": false
      }
    },
    {
      "id": "osm-8588108986",
      "name": "Timișoara Supercharger",
      "type": "charging_station",
      "lat": 45.755121,
      "lon": 21.233128,
      "operator": "Tesla",
      "address": {},
      "power": {
        "max_kw": 250.0,
        "sockets": [
          {
            "type": "CCS (Type 2)",
            "kw": 250.0,
            "count": 6
          }
        ],
        "capacity": 6
      },
      "source": "osm",
      "tags": {
        "access": "customers",
        "fee": "yes",
        "brand": "Tesla Supercharger",
        "network": "",
        "opening_hours": "24/7"
      },
      "amenities": {
        "opening_hours": "24/7",
        "fee": true
      }
    },
    {
      "id": "osm-9672267281",
      "name": "Ladestation Primăria Timișoara",
      "type": "charging_station",
      "lat": 45.753104,
      "lon": 21.231227,
      "operator": "Primăria Timișoara",
      "address": {},
      "power": {
        "capacity": 2
      },
      "source": "osm",
      "tags": {
        "access": "",
        "fee": "",
        "brand": "",
        "network": "",
        "opening_hours": ""
      }
    },
    {
      "id": "osm-9672267283",
      "name": "Ladestation Municipiul Timișoara",
      "type": "charging_station",
      "lat": 45.757163,
      "lon": 21.232293,
      "operator": "Municipiul Timișoara",
      "address": {},
      "power": {
        "capacity": 2
      },
      "source": "osm",
      "tags": {
        "access": "",
        "fee": "",
        "brand": "",
        "network": "",
        "opening_hours": ""
      }
    },
    {
      "id": "osm-4235399499",
      "name": "Citylimo - evconnect.ro",
      "type": "charging_station",
      "lat": 45.724257,
      "lon": 21.200568,
      "operator": "Citylimo",
      "address": {},
      "power": {
        "capacity": 2
      },
      "source": "osm",
      "tags": {
        "access": "yes",
        "fee": "",
        "brand": "evconnect.ro",
        "network": "",
        "opening_hours": ""
      }
    },
    {
      "id": "osm-5181107750",
      "name": "Ladestation Lidl",
      "type": "charging_station",
      "lat": 45.791752,
      "lon": 21.238647,
      "operator": "Lidl",
      "address": {},
      "power": {
        "capacity": 3
      },
      "source": "osm",
      "tags": {
        "access": "",
        "fee": "",
        "brand": "",
        "network": "",
        "opening_hours": ""
      }
    },
    {
      "id": "osm-5208158210",
      "name": "Socar",
      "type": "charging_station",
      "lat": 45.77261,
      "lon": 21.287457,
      "operator": "Unbekannt",
      "address": {},
      "power": {
        "capacity": 1
      },
      "source": "osm",
      "tags": {
        "access": "yes",
        "fee": "",
        "brand": "",
        "network": "",
        "opening_hours": ""
      }
    },
    {
      "id": "osm-5234481611",
      "name": "lek3.co",
      "type": "charging_station",
      "lat": 45.757777,
      "lon": 21.224204,
      "operator": "hub700",
      "address": {},
      "power": {
        "capacity": 6
      },
      "source": "osm",
      "tags": {
        "access": "yes",
        "fee": "yes",
        "brand": "lek3.co",
        "network": "",
        "opening_hours": ""
      },
      "amenities": {
        "fee": true
      }
    },
    {
      "id": "osm-6889027514",
      "name": "Ladestation Incuboxx",
      "type": "charging_station",
      "lat": 45.75309,
      "lon": 21.216869,
      "operator": "Incuboxx",
      "address": {},
      "power": {
        "capacity": 2
      },
      "source": "osm",
      "tags": {
        "access": "yes",
        "fee": "no",
        "brand": "",
        "network": "",
        "opening_hours": ""
      },
      "amenities": {
        "fee": false
      }
    },
    {
      "id": "osm-7622357576",
      "name": "Ladestation Lidl",
      "type": "charging_station",
      "lat": 45.754572,
      "lon": 21.21657,
      "operator": "Lidl",
      "address": {},
      "power": {
        "capacity": 2
      },
      "source": "osm",
      "tags": {
        "access": "",
        "fee": "",
        "brand": "",
        "network": "",
        "opening_hours": ""
      }
    },
    {
      "id": "osm-9672267275",
      "name": "Ladestation ev +go",
      "type": "charging_station",
      "lat": 45.753637,
      "lon": 21.223876,
      "operator": "ev +go",
      "address": {},
      "power": {
        "capacity": 2
      },
      "source": "osm",
      "tags": {
        "access": "",
        "fee": "",
        "brand": "",
        "network": "",
        "opening_hours": ""
      }
    },
    {
      "id": "osm-9672267282",
      "name": "Ladestation Primăria Timișoara",
      "type": "charging_station",
      "lat": 45.757365,
      "lon": 21.222828,
      "operator": "Primăria Timișoara",
      "address": {},
      "power": {
        "capacity": 3
      },
      "source": "osm",
      "tags": {
        "access": "",
        "fee": "",
        "brand": "",
        "network": "",
        "opening_hours": ""
      }
    },
    {
      "id": "osm-5234481612",
      "name": "Kaufland - Renovatio/Efacec",
      "type": "charging_station",
      "lat": 45.739243,
      "lon": 21.211984,
      "operator": "Kaufland",
      "address": {},
      "power": {
        "capacity": 3
      },
      "source": "osm",
      "tags": {
        "access": "yes",
        "fee": "yes",
        "brand": "Renovatio/Efacec",
        "network": "",
        "opening_hours": ""
      },
      "amenities": {
        "payment_methods": [
          "Cards"
        ],
        "fee": true
      }
    },
    {
      "id": "osm-8425173949",
      "name": "Ladestation Enel",
      "type": "charging_station",
      "lat": 45.738352,
      "lon": 21.210098,
      "operator": "Enel",
      "address": {},
      "source": "osm",
      "tags": {
        "access": "",
        "fee": "",
        "brand": "",
        "network": "",
        "opening_hours": ""
      }
    },
    {
      "id": "osm-9672267287",
      "name": "Ladeeinrichtung",
      "type": "charging_station",
      "lat": 45.736791,
      "lon": 21.209619,
      "operator": "Unbekannt",
      "address": {},
      "source": "osm",
      "tags": {
        "access": "",
        "fee": "",
        "brand": "",
        "network": "",
        "opening_hours": ""
      }
    },
    {
      "id": "osm-5234481613",
      "name": "EVlink - EVLink",
      "type": "charging_station",
      "lat": 45.734579,
      "lon": 21.266714,
      "operator": "EVlink",
      "address": {},
      "power": {
        "capacity": 6
      },
      "source": "osm",
      "tags": {
        "access": "yes",
        "fee": "no",
        "brand": "EVLink",
        "network": "",
        "opening_hours": ""
      },
      "amenities": {
        "fee": false
      }
    },
    {
      "id": "osm-5234481615",
      "name": "Enel - Schneider Electric",
      "type": "charging_station",
      "lat": 45.809939,
      "lon": 21.319715,
      "operator": "Enel",
      "address": {},
      "power": {
        "capacity": 3
      },
      "source": "osm",
      "tags": {
        "access": "yes",
        "fee": "",
        "brand": "Schneider Electric",
        "network": "",
        "opening_hours": ""
      }
    },
    {
      "id": "osm-5238114038",
      "name": "Lidl - ABB",
      "type": "charging_station",
      "lat": 45.763064,
      "lon": 21.252304,
      "operator": "Lidl",
      "address": {},
      "power": {
        "capacity": 3
      },
      "source": "osm",
      "tags": {
        "access": "yes",
        "fee": "yes",
        "brand": "ABB",
        "network": "",
        "opening_hours": ""
      },
      "amenities": {
        "payment_methods": [
          "Cards",
          "Cash"
        ],
        "fee": true
      }
    },
    {
      "id": "osm-6665550730",
      "name": "Trotinete electrice STPT",
      "type": "charging_station",
      "lat": 45.748417,
      "lon": 21.239556,
      "operator": "S.T.P.T.",
      "address": {},
      "source": "osm",
      "tags": {
        "access": "",
        "fee": "no",
        "brand": "",
        "network": "",
        "opening_hours": ""
      },
      "amenities": {
        "fee": false
      }
    },
    {
      "id": "osm-6665550731",
      "name": "Trotinete electrice STPT",
      "type": "charging_station",
      "lat": 45.747584,
      "lon": 21.226685,
      "operator": "S.T.P.T.",
      "address": {},
      "source": "osm",
      "tags": {
        "access": "yes",
        "fee": "no",
        "brand": "",
        "network": "",
        "opening_hours": ""
      },
      "amenities": {
        "fee": false
      }
    },
    {
      "id": "osm-6888920870",
      "name": "Enel - Enel",
      "type": "charging_station",
      "lat": 45.75124,
      "lon": 21.226253,
      "operator": "Enel",
      "address": {},
      "power": {
        "capacity": 1
      },
      "source": "osm",
      "tags": {
        "access": "yes",
        "fee": "no",
        "brand": "Enel",
        "network": "",
        "opening_hours": ""
      },
      "amenities": {
        "fee": false
      }
    },
    {
      "id": "osm-7057849175",
      "name": "Trotinete electrice STPT",
      "type": "charging_station",
      "lat": 45.747424,
      "lon": 21.231597,
      "operator": "S.T.P.T.",
      "address": {},
      "source": "osm",
      "tags": {
        "access": "yes",
        "fee": "no",
        "brand": "",
        "network": "",
        "opening_hours": ""
      },
      "amenities": {
        "fee": false
      }
    },
    {
      "id": "osm-9672267280",
      "name": "Ladestation Primăria Timișoara",
      "type": "charging_station",
      "lat": 45.751244,
      "lon": 21.233525,
      "operator": "Primăria Timișoara",
      "address": {},
      "power": {
        "capacity": 3
      },
      "source": "osm",
      "tags": {
        "access": "",
        "fee": "",
        "brand": "",
        "network": "",
        "opening_hours": ""
      }
    },
    {
      "id": "osm-6889044000",
      "name": "Nokia - Scame",
      "type": "charging_station",
      "lat": 45.749338,
      "lon": 21.212803,
      "operator": "Nokia",
      "address": {},
      "power": {
        "capacity": 3
      },
      "source": "osm",
      "tags": {
        "access": "yes",
        "fee": "",
        "brand": "Scame",
        "network": "",
        "opening_hours": ""
      }
    },
    {
      "id": "osm-9672267277",
      "name": "Ladeeinrichtung",
      "type": "charging_station",
      "lat": 45.749291,
      "lon": 21.214108,
      "operator": "Unbekannt",
      "address": {},
      "source": "osm",
      "tags": {
        "access": "",
        "fee": "",
        "brand": "",
        "network": "",
        "opening_hours": ""
      }
    },
    {
      "id": "osm-6889115220",
      "name": "Iulius Town - evconnect.ro",
      "type": "charging_station",
      "lat": 45.767162,
      "lon": 21.226426,
      "operator": "Iulius Town",
      "address": {},
      "power": {
        "capacity": 2
      },
      "source": "osm",
      "tags": {
        "access": "yes",
        "fee": "",
        "brand": "evconnect.ro",
        "network": "",
        "opening_hours": ""
      }
    },
    {
      "id": "osm-6889247509",
      "name": "Socar",
      "type": "charging_station",
      "lat": 45.76894,
      "lon": 21.235194,
      "operator": "Unbekannt",
      "address": {},
      "power": {
        "capacity": 1
      },
      "source": "osm",
      "tags": {
        "access": "yes",
        "fee": "",
        "brand": "",
        "network": "",
        "opening_hours": ""
      }
    },
    {
      "id": "osm-6889206963",
      "name": "Renovatio e-charge - Renovatio",
      "type": "charging_station",
      "lat": 45.764962,
      "lon": 21.24562,
      "operator": "Renovatio e-charge",
      "address": {},
      "power": {
        "capacity": 4
      },
      "source": "osm",
      "tags": {
        "access": "yes",
        "fee": "no",
        "brand": "Renovatio",
        "network": "",
        "opening_hours": ""
      },
      "amenities": {
        "fee": false
      }
    },
    {
      "id": "osm-6889273913",
      "name": "Schneider Electric - Schneider Electric",
      "type": "charging_station",
      "lat": 45.713131,
      "lon": 21.191671,
      "operator": "Schneider Electric",
      "address": {},
      "power": {
        "capacity": 1
      },
      "source": "osm",
      "tags": {
        "access": "yes",
        "fee": "",
        "brand": "Schneider Electric",
        "network": "",
        "opening_hours": ""
      }
    },
    {
      "id": "osm-6889328179",
      "name": "Ladestation Paul Trans Service",
      "type": "charging_station",
      "lat": 45.69579,
      "lon": 21.177434,
      "operator": "Paul Trans Service",
      "address": {},
      "power": {
        "capacity": 1
      },
      "source": "osm",
      "tags": {
        "access": "yes",
        "fee": "yes",
        "brand": "",
        "network": "",
        "opening_hours": ""
      },
      "amenities": {
        "payment_methods": [
          "Cash"
        ],
        "fee": true
      }
    },
    {
      "id": "osm-6889460325",
      "name": "Ladestation FanCourier",
      "type": "charging_station",
      "lat": 45.787517,
      "lon": 21.322669,
      "operator": "FanCourier",
      "address": {},
      "power": {
        "capacity": 2
      },
      "source": "osm",
      "tags": {
        "access": "yes",
        "fee": "",
        "brand": "",
        "network": "",
        "opening_hours": ""
      }
    },
    {
      "id": "osm-13321811149",
      "name": "Ladestation EVBox",
      "type": "charging_station",
      "lat": 45.789342,
      "lon": 21.31539,
      "operator": "EVBox",
      "address": {},
      "source": "osm",
      "tags": {
        "access": "",
        "fee": "",
        "brand": "",
        "network": "",
        "opening_hours": ""
      }
    },
    {
      "id": "osm-7056387968",
      "name": "Trotinete electrice STPT",
      "type": "charging_station",
      "lat": 45.751349,
      "lon": 21.223329,
      "operator": "S.T.P.T.",
      "address": {},
      "source": "osm",
      "tags": {
        "access": "yes",
        "fee": "no",
        "brand": "",
        "network": "",
        "opening_hours": ""
      },
      "amenities": {
        "fee": false
      }
    },
    {
      "id": "osm-7108831726",
      "name": "Trotinete electrice STPT",
      "type": "charging_station",
      "lat": 45.751644,
      "lon": 21.216435,
      "operator": "S.T.P.T.",
      "address": {},
      "source": "osm",
      "tags": {
        "access": "yes",
        "fee": "no",
        "brand": "",
        "network": "",
        "opening_hours": ""
      },
      "amenities": {
        "fee": false
      }
    },
    {
      "id": "osm-9672267278",
      "name": "Ladestation Primăria Timișoara",
      "type": "charging_station",
      "lat": 45.747086,
      "lon": 21.225485,
      "operator": "Primăria Timișoara",
      "address": {},
      "source": "osm",
      "tags": {
        "access": "",
        "fee": "",
        "brand": "",
        "network": "",
        "opening_hours": ""
      }
    },
    {
      "id": "osm-7056387969",
      "name": "Trotinete electrice STPT",
      "type": "charging_station",
      "lat": 45.758727,
      "lon": 21.225983,
      "operator": "S.T.P.T.",
      "address": {},
      "source": "osm",
      "tags": {
        "access": "yes",
        "fee": "no",
        "brand": "",
        "network": "",
        "opening_hours": ""
      },
      "amenities": {
        "fee": false
      }
    },
    {
      "id": "osm-7056387971",
      "name": "Trotinete electrice STPT",
      "type": "charging_station",
      "lat": 45.759482,
      "lon": 21.229651,
      "operator": "S.T.P.T.",
      "address": {},
      "source": "osm",
      "tags": {
        "access": "yes",
        "fee": "no",
        "brand": "",
        "network": "",
        "opening_hours": ""
      },
      "amenities": {
        "fee": false
      }
    },
    {
      "id": "osm-7108831725",
      "name": "Trotinete electrice STPT",
      "type": "charging_station",
      "lat": 45.75651,
      "lon": 21.237196,
      "operator": "S.T.P.T.",
      "address": {},
      "source": "osm",
      "tags": {
        "access": "yes",
        "fee": "no",
        "brand": "",
        "network": "",
        "opening_hours": ""
      },
      "amenities": {
        "fee": false
      }
    },
    {
      "id": "osm-9672267284",
      "name": "Ladeeinrichtung",
      "type": "charging_station",
      "lat": 45.755742,
      "lon": 21.237401,
      "operator": "Unbekannt",
      "address": {},
      "source": "osm",
      "tags": {
        "access": "",
        "fee": "",
        "brand": "",
        "network": "",
        "opening_hours": ""
      }
    },
    {
      "id": "osm-7144901566",
      "name": "Trotinete electrice STPT",
      "type": "charging_station",
      "lat": 45.73764,
      "lon": 21.241228,
      "operator": "S.T.P.T.",
      "address": {},
      "source": "osm",
      "tags": {
        "access": "",
        "fee": "no",
        "brand": "",
        "network": "",
        "opening_hours": ""
      },
      "amenities": {
        "fee": false
      }
    },
    {
      "id": "osm-7235057684",
      "name": "Flow",
      "type": "charging_station",
      "lat": 45.775149,
      "lon": 21.213371,
      "operator": "Flow",
      "address": {},
      "source": "osm",
      "tags": {
        "access": "yes",
        "fee": "yes",
        "brand": "",
        "network": "",
        "opening_hours": ""
      },
      "amenities": {
        "fee": true
      }
    },
    {
      "id": "osm-7263032710",
      "name": "Trotinete electrice STPT",
      "type": "charging_station",
      "lat": 45.762697,
      "lon": 21.211332,
      "operator": "S.T.P.T.",
      "address": {},
      "source": "osm",
      "tags": {
        "access": "yes",
        "fee": "no",
        "brand": "",
        "network": "",
        "opening_hours": ""
      },
      "amenities": {
        "fee": false
      }
    },
    {
      "id": "osm-7291307209",
      "name": "Trotinete electrice STPT",
      "type": "charging_station",
      "lat": 45.783572,
      "lon": 21.218744,
      "operator": "S.T.P.T.",
      "address": {},
      "source": "osm",
      "tags": {
        "access": "yes",
        "fee": "no",
        "brand": "",
        "network": "",
        "opening_hours": ""
      },
      "amenities": {
        "fee": false
      }
    },
    {
      "id": "osm-7525762020",
      "name": "Ladeeinrichtung",
      "type": "charging_station",
      "lat": 45.722668,
      "lon": 21.299311,
      "operator": "Unbekannt",
      "address": {},
      "source": "osm",
      "tags": {
        "access": "",
        "fee": "",
        "brand": "",
        "network": "",
        "opening_hours": ""
      }
    },
    {
      "id": "osm-7817112380",
      "name": "E.ON - E.ON Drive",
      "type": "charging_station",
      "lat": 45.71918,
      "lon": 21.315672,
      "operator": "E.ON",
      "address": {},
      "source": "osm",
      "tags": {
        "access": "",
        "fee": "",
        "brand": "E.ON Drive",
        "network": "",
        "opening_hours": ""
      }
    },
    {
      "id": "osm-8660324052",
      "name": "Ladeeinrichtung",
      "type": "charging_station",
      "lat": 45.730602,
      "lon": 21.188022,
      "operator": "Unbekannt",
      "address": {},
      "source": "osm",
      "tags": {
        "access": "",
        "fee": "",
        "brand": "",
        "network": "",
        "opening_hours": ""
      }
    },
    {
      "id": "osm-9376420008",
      "name": "Ladeeinrichtung",
      "type": "charging_station",
      "lat": 45.727893,
      "lon": 21.235683,
      "operator": "Unbekannt",
      "address": {},
      "source": "osm",
      "tags": {
        "access": "",
        "fee": "",
        "brand": "",
        "network": "",
        "opening_hours": ""
      }
    },
    {
      "id": "osm-9672267279",
      "name": "Ladestation Primăria Timișoara",
      "type": "charging_station",
      "lat": 45.746902,
      "lon": 21.233031,
      "operator": "Primăria Timișoara",
      "address": {},
      "source": "osm",
      "tags": {
        "access": "",
        "fee": "",
        "brand": "",
        "network": "",
        "opening_hours": ""
      }
    },
    {
      "id": "osm-9672267285",
      "name": "Ladeeinrichtung",
      "type": "charging_station",
      "lat": 45.760057,
      "lon": 21.24002,
      "operator": "Unbekannt",
      "address": {},
      "source": "osm",
      "tags": {
        "access": "",
        "fee": "",
        "brand": "",
        "network": "",
        "opening_hours": ""
      }
    },
    {
      "id": "osm-9672267286",
      "name": "Ladeeinrichtung",
      "type": "charging_station",
      "lat": 45.777036,
      "lon": 21.220568,
      "operator": "Unbekannt",
      "address": {},
      "source": "osm",
      "tags": {
        "access": "",
        "fee": "",
        "brand": "",
        "network": "",
        "opening_hours": ""
      }
    },
    {
      "id": "osm-9672323088",
      "name": "Ladestation Lidl",
      "type": "charging_station",
      "lat": 45.713116,
      "lon": 21.212279,
      "operator": "Lidl",
      "address": {},
      "source": "osm",
      "tags": {
        "access": "",
        "fee": "",
        "brand": "",
        "network": "",
        "opening_hours": ""
      }
    },
    {
      "id": "osm-9727096959",
      "name": "Ladeeinrichtung",
      "type": "charging_station",
      "lat": 45.739889,
      "lon": 21.258301,
      "operator": "Unbekannt",
      "address": {},
      "source": "osm",
      "tags": {
        "access": "",
        "fee": "",
        "brand": "",
        "network": "",
        "opening_hours": ""
      }
    },
    {
      "id": "osm-11235694791",
      "name": "Ladestation IKEA",
      "type": "charging_station",
      "lat": 45.793367,
      "lon": 21.210639,
      "operator": "IKEA",
      "address": {},
      "power": {
        "capacity": 11
      },
      "source": "osm",
      "tags": {
        "access": "",
        "fee": "",
        "brand": "",
        "network": "",
        "opening_hours": ""
      }
    },
    {
      "id": "osm-12351817790",
      "name": "Petrom Electric Charging Station",
      "type": "charging_station",
      "lat": 45.039604,
      "lon": 21.680749,
      "operator": "Unbekannt",
      "address": {},
      "source": "osm",
      "tags": {
        "access": "",
        "fee": "yes",
        "brand": "Petrom",
        "network": "",
        "opening_hours": ""
      },
      "amenities": {
        "payment_methods": [
          "Cadhoc",
          "Cadoupass",
          "Cheques Dejeuner",
          "Debit Cards",
          "Gustopass",
          "Mastercard",
          "Routex",
          "Smartpass",
          "Ticket Restaurant",
          "Visa"
        ],
        "fee": true
      }
    },
    {
      "id": "osm-12776392513",
      "name": "Ladestation Lidl Charging Station",
      "type": "charging_station",
      "lat": 45.763267,
      "lon": 21.186648,
      "operator": "Unbekannt",
      "address": {},
      "power": {
        "capacity": 2
      },
      "source": "osm",
      "tags": {
        "access": "yes",
        "fee": "",
        "brand": "Lidl Charging Station",
        "network": "",
        "opening_hours": ""
      }
    },
    {
      "id": "osm-12852831301",
      "name": "BRK charging station 230 V",
      "type": "charging_station",
      "lat": 45.864492,
      "lon": 21.572877,
      "operator": "Unbekannt",
      "address": {
        "street": "Gogenova de Sus 18",
        "postcode": "307347"
      },
      "source": "osm",
      "tags": {
        "access": "",
        "fee": "",
        "brand": "",
        "network": "",
        "opening_hours": "24/7"
      },
      "amenities": {
        "opening_hours": "24/7"
      }
    },
    {
      "id": "osm-13200341162",
      "name": "Timișoara Supercharger",
      "type": "charging_station",
      "lat": 45.774012,
      "lon": 21.211583,
      "operator": "Tesla",
      "address": {},
      "power": {
        "max_kw": 250.0,
        "sockets": [
          {
            "type": "CCS (Type 2)",
            "kw": 250.0,
            "count": 12
          }
        ],
        "capacity": 12
      },
      "source": "osm",
      "tags": {
        "access": "yes",
        "fee": "yes",
        "brand": "Tesla Supercharger",
        "network": "",
        "opening_hours": "24/7"
      },
      "amenities": {
        "opening_hours": "24/7",
        "fee": true
      }
    },
    {
      "id": "osm-13266711547",
      "name": "E.ON - E.ON Drive",
      "type": "charging_station",
      "lat": 45.67797,
      "lon": 21.905083,
      "operator": "E.ON",
      "address": {},
      "source": "osm",
      "tags": {
        "access": "",
        "fee": "",
        "brand": "E.ON Drive",
        "network": "",
        "opening_hours": ""
      }
    },
    {
      "id": "osm-13293914029",
      "name": "E.ON - E.ON Drive",
      "type": "charging_station",
      "lat": 45.706771,
      "lon": 21.234386,
      "operator": "E.ON",
      "address": {},
      "source": "osm",
      "tags": {
        "access": "",
        "fee": "",
        "brand": "E.ON Drive",
        "network": "",
        "opening_hours": ""
      }
    }
  ]
}