{"tile": "poi-tile-49-22", "lat": 49, "lon": 22, "stations": [{"id": "osm-9306231276", "name": "PGE Nowa Energia", "type": "charging_station", "lat": 49.591965, "lon": 22.629305, "operator": "PGE Nowa Energia", "address": {"street": "", "housenumber": "", "postcode": "", "city": "", "state": "", "country": ""}, "power": {"max_kw": null, "sockets": [], "capacity": 0}, "source": "osm", "tags": {"fee": "", "access": "", "opening_hours": "", "authentication": "", "brand": "", "network": "", "operator": "PGE Nowa Energia"}, "amenities": {"fee": false}}, {"id": "osm-9376664603", "name": "Ursa Maior", "type": "charging_station", "lat": 49.471528, "lon": 22.413234, "operator": "Ursa Maior", "address": {"street": "", "housenumber": "", "postcode": "", "city": "", "state": "", "country": ""}, "power": {"max_kw": null, "sockets": [], "capacity": 0}, "source": "osm", "tags": {"fee": "", "access": "", "opening_hours": "", "authentication": "", "brand": "", "network": "", "operator": "Ursa Maior"}, "amenities": {"fee": false}}, {"id": "osm-11085219272", "name": "EV Charging Station", "type": "charging_station", "lat": 49.649468, "lon": 22.677073, "operator": "Unknown", "address": {"street": "", "housenumber": "", "postcode": "", "city": "", "state": "", "country": ""}, "power": {"max_kw": null, "sockets": [], "capacity": 0}, "source": "osm", "tags": {"fee": "", "access": "", "opening_hours": "", "authentication": "", "brand": "", "network": "", "operator": ""}, "amenities": {"fee": false}}, {"id": "osm-11134777450", "name": "Noxo Energy", "type": "charging_station", "lat": 49.939614, "lon": 22.667299, "operator": "Unknown", "address": {"street": "", "housenumber": "", "postcode": "", "city": "", "state": "", "country": ""}, "power": {"max_kw": null, "sockets": [], "capacity": 0}, "source": "osm", "tags": {"fee": "", "access": "customers", "opening_hours": "", "authentication": "", "brand": "Noxo Energy", "network": "", "operator": ""}, "amenities": {"fee": false}}, {"id": "osm-11134801173", "name": "EV Charging Station", "type": "charging_station", "lat": 49.792379, "lon": 22.72246, "operator": "Unknown", "address": {"street": "", "housenumber": "", "postcode": "", "city": "", "state": "", "country": ""}, "power": {"max_kw": null, "sockets": [], "capacity": 0}, "source": "osm", "tags": {"fee": "", "access": "", "opening_hours": "", "authentication": "", "brand": "", "network": "", "operator": ""}, "amenities": {"fee": false}}, {"id": "osm-11134839555", "name": "EV Charging Station", "type": "charging_station", "lat": 49.435871, "lon": 22.569942, "operator": "Unknown", "address": {"street": "", "housenumber": "", "postcode": "", "city": "", "state": "", "country": ""}, "power": {"max_kw": null, "sockets": [], "capacity": 0}, "source": "osm", "tags": {"fee": "", "access": "yes", "opening_hours": "", "authentication": "", "brand": "", "network": "", "operator": ""}, "amenities": {"fee": false}}, {"id": "osm-11134849731", "name": "Noxo Energy", "type": "charging_station", "lat": 49.426071, "lon": 22.236982, "operator": "Unknown", "address": {"street": "", "housenumber": "", "postcode": "", "city": "", "state": "", "country": ""}, "power": {"max_kw": null, "sockets": [], "capacity": 0}, "source": "osm", "tags": {"fee": "", "access": "customers", "opening_hours": "", "authentication": "", "brand": "Noxo Energy", "network": "", "operator": ""}, "amenities": {"fee": false}}, {"id": "osm-11181999184", "name": "Hotel Górski PTTK", "type": "charging_station", "lat": 49.109005, "lon": 22.655101, "operator": "Hotel Górski PTTK", "address": {"street": "", "housenumber": "", "postcode": "", "city": "", "state": "", "country": ""}, "power": {"max_kw": null, "sockets": [], "capacity": 0}, "source": "osm", "tags": {"fee": "", "access": "yes", "opening_hours": "", "authentication": "", "brand": "", "network": "", "operator": "Hotel Górski PTTK"}, "amenities": {"fee": false}}, {"id": "osm-11331300809", "name": "Eko Energetyka", "type": "charging_station", "lat": 49.787919, "lon": 22.765057, "operator": "Unknown", "address": {"street": "", "housenumber": "", "postcode": "", "city": "", "state": "", "country": ""}, "power": {"max_kw": null, "sockets": [{"type": "Chademo", "kw": null, "count": 1}, {"type": "Type2", "kw": null, "count": 1}, {"type": "Type2 Combo", "kw": null, "count": 1}], "capacity": 3}, "source": "osm", "tags": {"fee": "", "access": "", "opening_hours": "", "authentication": "", "brand": "", "network": "", "operator": ""}, "amenities": {"fee": false}}, {"id": "osm-11937230639", "name": "Antik", "type": "charging_station", "lat": 49.171711, "lon": 22.207672, "operator": "Antik", "address": {"street": "", "housenumber": "", "postcode": "", "city": "", "state": "", "country": ""}, "power": {"max_kw": null, "sockets": [], "capacity": 0}, "source": "osm", "tags": {"fee": "no", "access": "permit", "opening_hours": "", "authentication": "", "brand": "", "network": "", "operator": "Antik"}, "amenities": {"fee": false}}, {"id": "osm-12141710580", "name": "EV Charging Station", "type": "charging_station", "lat": 49.948951, "lon": 22.822748, "operator": "Unknown", "address": {"street": "", "housenumber": "", "postcode": "", "city": "", "state": "", "country": ""}, "power": {"max_kw": null, "sockets": [], "capacity": 0}, "source": "osm", "tags": {"fee": "", "access": "", "opening_hours": "", "authentication": "", "brand": "", "network": "", "operator": ""}, "amenities": {"fee": false}}, {"id": "osm-12402802765", "name": "Powerdot", "type": "charging_station", "lat": 49.699474, "lon": 22.018292, "operator": "Powerdot", "address": {"street": "", "housenumber": "", "postcode": "", "city": "", "state": "", "country": ""}, "power": {"max_kw": null, "sockets": [], "capacity": 0}, "source": "osm", "tags": {"fee": "", "access": "yes", "opening_hours": "", "authentication": "", "brand": "Powerdot", "network": "", "operator": "Powerdot"}, "amenities": {"fee": false}}, {"id": "osm-12402802768", "name": "Elocity", "type": "charging_station", "lat": 49.693218, "lon": 22.029169, "operator": "Elocity", "address": {"street": "", "housenumber": "", "postcode": "", "city": "", "state": "", "country": ""}, "power": {"max_kw": null, "sockets": [], "capacity": 0}, "source": "osm", "tags": {"fee": "yes", "access": "yes", "opening_hours": "", "authentication": "", "brand": "Elocity", "network": "", "operator": "Elocity"}, "amenities": {"fee": true}}, {"id": "osm-12744281861", "name": "EV Charging Station", "type": "charging_station", "lat": 49.536302, "lon": 22.224427, "operator": "Unknown", "address": {"street": "", "housenumber": "", "postcode": "", "city": "", "state": "", "country": ""}, "power": {"max_kw": null, "sockets": [], "capacity": 0}, "source": "osm", "tags": {"fee": "", "access": "", "opening_hours": "", "authentication": "", "brand": "", "network": "", "operator": ""}, "amenities": {"fee": false}}, {"id": "osm-13009975134", "name": "NOXO. Carpatia Bieszczadzki", "type": "charging_station", "lat": 49.175613, "lon": 22.431701, "operator": "NOXO.", "address": {"street": "", "housenumber": "", "postcode": "", "city": "", "state": "", "country": ""}, "power": {"max_kw": null, "sockets": [], "capacity": 0}, "source": "osm", "tags": {"fee": "", "access": "", "opening_hours": "", "authentication": "", "brand": "", "network": "", "operator": "NOXO."}, "amenities": {"fee": false}}, {"id": "osm-13543726407", "name": "Готельно-ресторанний комплекс \"Світлиця\"", "type": "charging_station", "lat": 49.798682, "lon": 22.958048, "operator": "Готельно-ресторанний комплекс \"Світлиця\"", "address": {"street": "", "housenumber": "", "postcode": "", "city": "", "state": "", "country": ""}, "power": {"max_kw": null, "sockets": [], "capacity": 0}, "source": "osm", "tags": {"fee": "yes", "access": "", "opening_hours": "", "authentication": "", "brand": "", "network": "", "operator": "Готельно-ресторанний комплекс \"Світлиця\""}, "amenities": {"fee": true}}, {"id": "osm-13543838461", "name": "GO TO-U Charging Station", "type": "charging_station", "lat": 49.799222, "lon": 22.952822, "operator": "Unknown", "address": {"street": "", "housenumber": "", "postcode": "", "city": "", "state": "", "country": ""}, "power": {"max_kw": null, "sockets": [], "capacity": 0}, "source": "osm", "tags": {"fee": "yes", "access": "", "opening_hours": "", "authentication": "", "brand": "GO TO-U Charging Station", "network": "", "operator": ""}, "amenities": {"fee": true}}, {"id": "osm-13670992898", "name": "ejoin", "type": "charging_station", "lat": 49.191611, "lon": 22.006331, "operator": "ejoin", "address": {"street": "", "housenumber": "", "postcode": "", "city": "", "state": "", "country": ""}, "power": {"max_kw": null, "sockets": [{"type": "Type2", "kw": null, "count": 2}], "capacity": 2}, "source": "osm", "tags": {"fee": "yes", "access": "yes", "opening_hours": "", "authentication": "", "brand": "ejoin", "network": "", "operator": "ejoin"}, "amenities": {"fee": true}}, {"id": "osm-13681780781", "name": "EV Charging Station", "type": "charging_station", "lat": 49.438023, "lon": 22.572796, "operator": "Unknown", "address": {"street": "", "housenumber": "", "postcode": "", "city": "", "state": "", "country": ""}, "power": {"max_kw": null, "sockets": [], "capacity": 0}, "source": "osm", "tags": {"fee": "", "access": "", "opening_hours": "", "authentication": "", "brand": "", "network": "", "operator": ""}, "amenities": {"fee": false}}], "count": 19}